Facility Name,Longitude,Latitude,Organization Unit Rural_Urban_Semi,Organization Unit Type,Oral Pills (contraception) ,Injectables,IUDs  (contraception) ,Implants (contraception)  ,Female Sterilization (contraception) ,Male Sterilization (contraception) ,Male Medical Circumcision (MMC),TB ,Maternal Health,Mental Health,  Oral health services ,Rehabilitation Services,Minor Ailments,Sexually Transmitted Infections Screenings,HIV Testing ,HIV Treatment (ART) ,Oral PrEP ,Termination of Pregnancy - 1st Trimester,Termination of Pregnancy - 2nd Trimester,AYFS Accredited,CCMDD Pick Up Point,Physical Address
Paballong Clinic,28.50627,-30.4205,Rural,Clinic,Yes,Yes,No,No,No,No,No,Yes,Yes,Yes,No,No,Yes,No,Yes,Yes,No,No,No,,Registered,
Ethembeni Clinic,27.43183,-32.7628,Rural,Clinic,Yes,Yes,No,Yes,No,No,No,Yes,Yes,Yes,Yes,No,Yes,No,Yes,Yes,No,No,No,,Registered,
Frankfort Clinic,27.45267,-32.7202,Rural,Clinic,Yes,Yes,No,Yes,No,No,No,Yes,Yes,Yes,Yes,No,Yes,No,Yes,Yes,No,No,No,,Registered,
Masincedane Clinic,27.11363,-32.6859,Rural,Clinic,Yes,Yes,No,No,No,No,No,Yes,Yes,Yes,Yes,No,Yes,No,Yes,Yes,No,No,No,,Registered,
Mooiplaas Clinic,28.05406,-32.7376,Rural,Clinic,Yes,Yes,No,No,No,No,No,Yes,Yes,Yes,Yes,No,Yes,No,Yes,Yes,No,No,No,,Registered,
Glenmore Clinic,26.85843,-33.1426,Rural,Clinic,Yes,Yes,No,Yes,No,No,No,Yes,Yes,Yes,Yes,No,Yes,No,Yes,Yes,No,No,No,,Registered,
Balfour Clinic,26.68213,-32.5457,Rural,Clinic,Yes,Yes,No,Yes,No,No,No,Yes,Yes,Yes,No,No,Yes,No,Yes,Yes,No,No,No,,Registered,
War Memorial Clinic,26.83078,-32.7928,Urban,Clinic,Yes,Yes,No,Yes,No,No,No,Yes,Yes,Yes,Yes,No,Yes,No,Yes,Yes,No,No,No,,Registered,
Greenfields Clinic,27.86405,-33.0352,Urban,Clinic,Yes,Yes,No,No,No,No,No,Yes,Yes,Yes,Yes,No,Yes,No,Yes,Yes,No,No,No,,Registered,
Vaalbank Clinic,26.92519,-31.6083,Rural,Clinic,Yes,Yes,No,No,No,No,No,Yes,Yes,Yes,No,No,Yes,No,Yes,Yes,No,No,No,,Registered,
Rocklands Clinic,26.47956,-32.0168,Rural,Clinic,Yes,Yes,No,Yes,No,No,No,Yes,Yes,Yes,Yes,No,Yes,No,Yes,Yes,No,No,No,,Registered,
Sterkstroom Clinic,26.55336,-31.5531,Peri-Urban,Clinic,Yes,Yes,No,Yes,No,No,No,Yes,Yes,Yes,Yes,No,Yes,No,Yes,Yes,No,No,No,,Registered,
Middelburg Mobile 1,25.00971,-31.4963,Peri-Urban,Mobile Service,Yes,Yes,No,No,No,No,No,Yes,Yes,Yes,No,No,Yes,No,Yes,No,No,No,No,,Not Registered,
Middelburg Mobile 2,25.00971,-31.4963,Peri-Urban,Mobile Service,Yes,Yes,No,No,No,No,No,Yes,Yes,Yes,No,No,Yes,No,Yes,No,No,No,No,,Not Registered,
Middelburg Mobile 3,25.00971,-31.4963,Peri-Urban,Mobile Service,No,No,No,No,No,No,No,No,No,No,No,No,Yes,No,No,No,No,No,No,,Not Registered,
Empilisweni Clinic,28.23954,-31.1936,Urban,Clinic,Yes,Yes,Yes,Yes,No,No,No,Yes,Yes,Yes,Yes,No,Yes,No,Yes,Yes,No,No,No,,Registered,
Hlomendlini Clinic,27.2632,-30.5858,Rural,Clinic,Yes,Yes,No,Yes,No,No,No,Yes,Yes,Yes,Yes,No,Yes,No,Yes,Yes,No,No,No,,Not Registered,
Hilton Clinic,26.70189,-30.6971,Urban,Clinic,Yes,Yes,Yes,Yes,No,No,No,Yes,Yes,Yes,Yes,No,Yes,No,Yes,Yes,No,No,No,,Registered,
Poly Clinic,26.70762,-30.6929,Urban,Clinic,Yes,Yes,No,Yes,No,No,No,Yes,Yes,Yes,No,No,Yes,No,Yes,Yes,No,No,No,,Registered,
St Francis Hospital,26.69921,-30.6887,Urban,District Hospital,Yes,Yes,No,No,No,No,No,Yes,No,No,No,No,Yes,No,Yes,Yes,No,No,No,,Not Registered,
Silvertown Clinic,25.40224,-33.8265,Urban,Clinic,Yes,Yes,No,No,No,No,No,Yes,Yes,Yes,No,No,Yes,No,Yes,Yes,No,No,No,,Registered,
Thembalesizwe Clinic,24.05254,-32.4727,Urban,Clinic,No,No,No,No,No,No,No,No,No,No,No,No,Yes,No,No,No,No,No,No,,Not Registered,
Tayler Bequest Hospital (Matatiele),28.80195,-30.3327,Urban,District Hospital,Yes,Yes,No,No,Yes,No,Yes,Yes,No,Yes,Yes,Yes,Yes,No,Yes,Yes,No,No,No,,Registered,
Woodlands Clinic,24.16501,-34.0031,Peri-Urban,Clinic,Yes,Yes,Yes,No,No,No,No,Yes,Yes,Yes,No,No,Yes,No,Yes,Yes,No,Yes,Yes,,Not Registered,
Bergsig Clinic,25.44973,-33.3873,Urban,Clinic,Yes,Yes,No,Yes,No,No,No,Yes,Yes,Yes,No,No,Yes,No,Yes,Yes,No,No,No,,Registered,
Frankfort Clinic,28.49248,-27.2777,Urban,Clinic,Yes,Yes,No,Yes,No,No,No,Yes,Yes,Yes,No,No,Yes,No,Yes,Yes,No,No,No,,Registered,
Philani Clinic,28.5048,-27.2679,Urban,Clinic,Yes,Yes,Yes,Yes,No,No,No,Yes,Yes,Yes,No,No,Yes,No,Yes,Yes,No,No,No,,Not Registered,
Kgotso Clinic,27.66367,-27.5553,Urban,Clinic,Yes,Yes,No,Yes,No,No,No,Yes,Yes,Yes,Yes,No,Yes,No,Yes,Yes,No,No,No,,Not Registered,
Hilton Clinic,26.23833,-29.1073,Urban,Clinic,No,No,No,No,No,No,No,No,No,No,No,No,Yes,No,No,No,No,No,No,,Registered,
Poly Clinic,26.245,-29.141,Rural,Clinic,No,No,No,No,No,No,No,No,No,No,No,No,Yes,No,No,No,No,No,No,,Registered,
Klipfontein Clinic,26.98295,-29.5228,Peri-Urban,Clinic,Yes,Yes,No,No,No,No,No,Yes,Yes,Yes,No,No,Yes,No,Yes,Yes,No,No,No,,Not Registered,
Nthabiseng Clinic,28.78217,-28.5908,Rural,Clinic,Yes,Yes,Yes,Yes,No,No,No,Yes,Yes,Yes,No,No,Yes,No,Yes,Yes,No,No,No,,Registered,
Paballong Clinic,28.77695,-28.5552,Rural,Clinic,Yes,Yes,No,Yes,No,No,No,Yes,Yes,Yes,No,No,Yes,No,Yes,Yes,No,No,No,,Registered,
Riverside Clinic,28.81295,-28.5437,Peri-Urban,Clinic,Yes,Yes,No,Yes,No,No,No,Yes,Yes,Yes,No,No,Yes,No,Yes,Yes,No,No,No,,Registered,
Ethembeni Clinic,24.99175,-29.3933,Urban,Clinic,Yes,Yes,No,Yes,No,No,Yes,Yes,Yes,Yes,Yes,Yes,Yes,No,Yes,Yes,No,No,No,,Registered,
Sead Clinic,28.39597,-26.3931,Urban,Clinic,Yes,Yes,No,Yes,No,No,No,Yes,Yes,Yes,No,No,Yes,No,Yes,Yes,No,No,No,,Not Registered,
Greenfields Clinic,28.128174,-26.3949,Urban,Clinic,Yes,Yes,No,Yes,No,No,No,Yes,Yes,Yes,No,No,Yes,No,Yes,Yes,No,No,No,,Registered,
Mpumelelo Clinic,28.209,-25.9856,Urban,Clinic,Yes,Yes,No,No,No,No,No,Yes,Yes,Yes,No,No,Yes,Yes,Yes,Yes,No,No,No,,Registered,
Claremont Clinic,27.95632,-26.1774,Urban,Clinic,No,Yes,No,No,No,No,No,No,No,No,No,No,Yes,No,No,Yes,No,No,No,,Not Registered,
Sinqobile Clinic,27.88512,-26.219,Urban,Clinic,Yes,Yes,No,Yes,No,No,No,Yes,Yes,No,No,No,Yes,No,Yes,Yes,No,No,No,,Not Registered,
Freedom Park Clinic,27.932366,-26.2939,Urban,Clinic,Yes,Yes,No,Yes,No,No,No,Yes,Yes,No,No,No,Yes,No,Yes,Yes,No,No,No,,Registered,
Kanana Clinic,28.60833,-25.7758,Urban,Clinic,Yes,Yes,Yes,Yes,No,No,No,Yes,Yes,Yes,No,No,Yes,No,Yes,Yes,No,No,No,,Registered,
Rietspruit Clinic,27.757623,-26.7032,Urban,Clinic,Yes,Yes,No,No,No,No,Yes,Yes,Yes,Yes,No,No,Yes,Yes,Yes,Yes,No,No,No,,Not Registered,
Heidelberg Clinic,28.35737,-26.5014,Urban,Clinic,Yes,Yes,No,Yes,No,No,No,Yes,Yes,Yes,No,No,Yes,No,Yes,Yes,No,No,No,,Registered,
Welverdiend Clinic,27.282749,-26.3783,Urban,Clinic,Yes,Yes,No,No,No,No,No,Yes,Yes,Yes,No,No,Yes,No,Yes,Yes,No,No,No,,Not Registered,
Elandsfontein Clinic,27.64907,-26.1666,Urban,Clinic,Yes,Yes,No,No,No,No,No,Yes,Yes,Yes,No,No,Yes,No,Yes,Yes,No,No,No,,Not Registered,
Riverside Clinic,29.71081,-30.0844,Rural,Clinic,Yes,Yes,Yes,Yes,No,No,Yes,Yes,Yes,Yes,Yes,No,Yes,No,Yes,Yes,No,No,No,,Registered,
Mpumelelo Clinic,31.29159,-29.1918,Rural,Clinic,Yes,Yes,Yes,Yes,No,No,Yes,Yes,Yes,Yes,No,No,Yes,No,Yes,Yes,No,No,No,,Registered,
Hlomendlini Clinic,31.396888,-29.1859,Rural,Clinic,Yes,Yes,Yes,Yes,No,No,No,Yes,Yes,Yes,No,No,Yes,No,Yes,Yes,No,No,No,,Not Registered,
Nkwalini Clinic,31.525151,-28.7261,Rural,Clinic,Yes,Yes,Yes,No,No,No,Yes,Yes,Yes,Yes,No,No,Yes,No,Yes,Yes,No,No,No,,Registered,
Thembalesizwe Clinic,30.151059,-30.8609,Rural,Clinic,Yes,Yes,No,Yes,No,No,Yes,Yes,Yes,Yes,No,No,Yes,No,Yes,Yes,No,No,No,,Not Registered,
Philani Clinic,30.68312,-30.2513,Rural,Clinic,Yes,Yes,Yes,Yes,No,No,Yes,Yes,Yes,Yes,No,No,Yes,No,Yes,Yes,No,No,No,,Not Registered,
Woodlands Clinic,30.392693,-29.5799,Urban,Clinic,Yes,Yes,Yes,Yes,No,No,Yes,Yes,Yes,Yes,No,No,Yes,No,Yes,Yes,No,No,No,,Not Registered,
Richmond Clinic,30.273773,-29.8688,Peri-Urban,Clinic,Yes,Yes,Yes,Yes,No,No,Yes,Yes,Yes,Yes,Yes,Yes,Yes,No,Yes,Yes,No,No,No,,Registered,
Elandskraal Clinic,30.336806,-28.3742,Rural,Clinic,Yes,Yes,No,Yes,No,No,Yes,Yes,Yes,Yes,Yes,No,Yes,No,Yes,Yes,No,No,No,,Registered,
Ethembeni Clinic,30.497734,-28.8567,Rural,Clinic,Yes,Yes,No,Yes,No,No,Yes,Yes,Yes,Yes,No,No,Yes,No,Yes,Yes,No,No,No,,Registered,
Driefontein Clinic,29.702434,-28.3432,Rural,Clinic,Yes,Yes,No,Yes,No,No,Yes,Yes,Yes,Yes,No,No,Yes,No,Yes,Yes,No,No,No,,Registered,
KwaZamokuhle Clinic,29.8385,-28.7366,Rural,Clinic,No,No,No,No,No,No,No,No,No,No,No,No,Yes,No,No,No,No,No,No,,Not Registered,
Zwelisha Clinic,29.736631,-29.0593,Peri-Urban,Clinic,Yes,Yes,Yes,Yes,No,No,No,Yes,Yes,Yes,No,No,Yes,No,Yes,Yes,No,No,No,,Registered,
St Francis Hospital,31.476734,-28.2246,Rural,Specialised Psychiatric Hospital,No,No,No,No,No,No,No,Yes,No,No,No,No,Yes,No,Yes,Yes,No,No,No,,Not Registered,
Sipetu Hospital,29.18731,-31.0917,Rural,District Hospital,Yes,Yes,No,Yes,Yes,No,Yes,Yes,Yes,Yes,No,Yes,Yes,No,Yes,Yes,No,No,No,,Registered,
Schoongezicht Clinic,29.04323,-23.3366,Rural,Clinic,Yes,Yes,No,Yes,No,No,No,Yes,Yes,Yes,Yes,No,Yes,Yes,Yes,Yes,No,Yes,No,,Registered,
Uitkyk Clinic,29.127779,-23.2711,Rural,Clinic,Yes,Yes,No,Yes,No,No,Yes,Yes,Yes,Yes,Yes,No,Yes,No,Yes,Yes,No,No,No,,Registered,
Nthabiseng Clinic,27.67318,-23.6856,Rural,Clinic,Yes,Yes,Yes,Yes,No,No,No,Yes,Yes,Yes,No,No,Yes,No,Yes,Yes,No,No,No,,Registered,
Goedgevonden Clinic,28.93106,-23.6474,Rural,Clinic,Yes,Yes,No,Yes,No,No,No,Yes,Yes,Yes,Yes,No,Yes,No,Yes,Yes,No,No,No,,Registered,
Elandskraal Clinic,29.41202,-24.7142,Peri-Urban,Clinic,Yes,Yes,No,Yes,No,No,Yes,Yes,Yes,Yes,Yes,No,Yes,No,Yes,Yes,No,No,No,,Registered,
Beaconsfield Clinic,30.11881,-22.9214,Rural,Clinic,Yes,Yes,No,Yes,No,No,No,Yes,Yes,Yes,Yes,No,Yes,No,Yes,Yes,No,No,No,,Registered,
Kulani Clinic,30.03227,-23.0911,Rural,Clinic,Yes,Yes,No,Yes,No,No,No,Yes,Yes,Yes,No,No,Yes,No,Yes,Yes,No,No,No,,Registered,
Sterkstroom Clinic,30.6475,-22.8713,Rural,Clinic,Yes,Yes,No,Yes,No,No,No,Yes,Yes,Yes,Yes,No,Yes,No,Yes,Yes,No,No,No,,Registered,
Witpoort Hospital,28.01118,-23.3344,Peri-Urban,District Hospital,Yes,Yes,Yes,Yes,Yes,No,Yes,Yes,No,Yes,Yes,Yes,Yes,No,Yes,Yes,No,No,No,,Not Registered,
Madzikane kaZulu Memorial Hospital,28.99562,-30.9009,Urban,District Hospital,Yes,Yes,Yes,Yes,Yes,No,Yes,Yes,Yes,Yes,Yes,Yes,Yes,No,Yes,Yes,No,Yes,Yes,,Not Registered,
Kromdraai Clinic,27.87869,-24.9597,Rural,Clinic,Yes,Yes,No,Yes,No,No,No,Yes,Yes,Yes,No,No,Yes,No,Yes,Yes,No,Yes,Yes,,Registered,
Welverdiend Clinic,31.32917,-24.5809,Rural,Clinic,Yes,Yes,No,No,No,No,No,Yes,Yes,Yes,No,No,Yes,No,Yes,Yes,No,No,No,,Not Registered,
Nkwalini Clinic,31.3286,-25.5054,Rural,Clinic,Yes,Yes,No,Yes,No,No,No,Yes,Yes,Yes,No,No,Yes,Yes,Yes,Yes,No,No,No,,Registered,
Zwelisha Clinic,31.1708,-25.3673,Rural,Clinic,Yes,Yes,No,No,No,No,No,Yes,Yes,Yes,No,No,Yes,No,Yes,Yes,No,No,No,,Registered,
Elandsfontein Clinic,30.7619,-24.6218,Rural,Clinic,Yes,Yes,No,No,No,No,No,Yes,Yes,Yes,No,No,Yes,No,Yes,Yes,No,No,No,,Not Registered,
Glenmore Clinic,30.8519,-26.254,Rural,Clinic,Yes,Yes,Yes,No,No,No,Yes,Yes,Yes,Yes,Yes,No,Yes,No,Yes,Yes,No,No,No,,Registered,
Kromdraai Clinic,31.0239,-26.046,Peri-Urban,Clinic,Yes,Yes,No,Yes,No,No,Yes,Yes,Yes,Yes,Yes,No,Yes,No,Yes,Yes,No,No,No,,Registered,
Mooiplaas Clinic,30.8769,-26.0671,Rural,Clinic,Yes,Yes,No,Yes,No,No,Yes,Yes,Yes,Yes,Yes,No,Yes,No,Yes,Yes,No,No,No,,Registered,
Vlakplaas Clinic,30.98007,-26.1399,Rural,Clinic,Yes,Yes,Yes,Yes,No,No,No,Yes,Yes,Yes,Yes,No,Yes,No,Yes,Yes,No,No,No,,Registered,
Balfour Clinic,28.57869,-26.6342,Urban,Clinic,Yes,Yes,Yes,Yes,No,No,No,Yes,Yes,Yes,Yes,No,Yes,No,Yes,Yes,No,No,No,,Registered,
Sinqobile Clinic,29.888311,-27.137486,Rural,Clinic,Yes,Yes,No,No,No,No,No,Yes,Yes,Yes,Yes,No,Yes,No,Yes,Yes,No,No,No,,Not Registered,
Sead Clinic,29.4315,-26.4996,Urban,Clinic,Yes,Yes,Yes,Yes,No,No,No,Yes,Yes,Yes,No,No,Yes,No,Yes,Yes,No,No,No,,Not Registered,
Vaalbank Clinic,28.8499,-25.1466,Urban,Clinic,Yes,Yes,No,No,No,No,No,Yes,Yes,Yes,No,No,Yes,No,Yes,Yes,No,No,No,,Registered,
Weltevrede Clinic,29.0017,-25.0946,Rural,Clinic,Yes,Yes,No,No,No,No,No,Yes,Yes,Yes,No,No,Yes,No,Yes,Yes,No,No,No,,Registered,
Klipfontein Clinic,29.17414,-25.8668,Urban,Clinic,Yes,Yes,No,No,No,No,No,Yes,Yes,Yes,No,No,Yes,No,Yes,Yes,No,No,No,,Not Registered,
Kulani Clinic,30.031702,-23.091199,Urban,Clinic,No,No,No,No,No,No,No,No,No,No,No,No,Yes,No,No,No,No,No,No,,Registered,
Poly Clinic,29.189,-25.8821,Urban,Clinic,Yes,Yes,No,No,No,No,No,Yes,No,Yes,No,No,Yes,No,Yes,Yes,No,No,No,,Registered,
Rietspruit Clinic,29.20243,-26.162,Peri-Urban,Clinic,Yes,Yes,No,No,No,No,No,Yes,Yes,Yes,No,No,Yes,No,Yes,Yes,No,No,No,,Not Registered,
Schoongezicht Clinic,29.216669,-25.874709,Urban,Clinic,No,No,No,No,No,No,No,No,No,No,No,No,Yes,No,No,No,No,No,No,,Registered,
Kwazamokuhle Clinic,29.7295,-26.1351,Urban,Clinic,Yes,Yes,No,No,No,No,No,Yes,Yes,Yes,No,No,Yes,No,Yes,Yes,No,No,No,,Not Registered,
Middelburg Mobile 1,29.45133,-25.7741,Urban,Mobile Service,Yes,Yes,No,No,No,No,No,Yes,Yes,Yes,No,No,Yes,No,Yes,Yes,No,No,No,,Not Registered,
Middelburg Mobile 2,29.45133,-25.7741,Urban,Mobile Service,Yes,Yes,No,No,No,No,No,Yes,Yes,Yes,No,No,Yes,No,Yes,Yes,No,No,No,,Not Registered,
Middelburg Mobile 3,29.45133,-25.7741,Urban,Mobile Service,Yes,Yes,No,No,No,No,No,Yes,Yes,Yes,No,No,Yes,No,Yes,Yes,No,No,No,,Not Registered,
Beaconsfield Clinic,24.78461,-28.7577,Urban,Clinic,Yes,Yes,No,No,No,No,No,Yes,Yes,Yes,Yes,No,Yes,No,Yes,Yes,No,No,No,,Registered,
Maruping Clinic,23.36766,-27.3461,Rural,Clinic,Yes,Yes,No,Yes,No,No,No,Yes,Yes,Yes,No,No,Yes,No,Yes,Yes,No,No,No,,Registered,
Ethembeni Clinic,22.435,-29.3935,Urban,Clinic,Yes,Yes,No,Yes,No,No,No,Yes,Yes,Yes,No,No,Yes,No,Yes,Yes,No,No,No,,Registered,
Richmond Clinic,23.95385,-31.4199,Urban,Clinic,Yes,Yes,No,No,No,No,No,Yes,Yes,Yes,Yes,No,Yes,No,Yes,Yes,No,No,No,,Registered,
Uitkyk Clinic,26.43042,-25.2035,Rural,Clinic,Yes,Yes,No,No,No,No,No,Yes,Yes,Yes,Yes,No,Yes,No,Yes,Yes,No,No,No,,Registered,
Vlakplaas Clinic,26.87841,-25.0034,Rural,Clinic,Yes,Yes,No,No,No,No,No,Yes,Yes,Yes,Yes,No,Yes,No,Yes,Yes,No,No,No,,Registered,
Freedom Park Clinic,27.238286,-25.674347,Rural,Clinic,Yes,Yes,Yes,Yes,No,No,No,Yes,Yes,Yes,No,No,Yes,No,Yes,Yes,No,No,No,,Registered,
Empilisweni Clinic,26.60393,-26.8869,Urban,Clinic,Yes,Yes,Yes,Yes,No,No,No,Yes,Yes,Yes,No,No,Yes,No,Yes,Yes,No,No,No,,Registered,
Kanana Clinic,26.63979,-26.9637,Urban,Clinic,Yes,Yes,Yes,No,No,No,No,Yes,Yes,Yes,No,No,Yes,No,Yes,Yes,No,No,No,,Registered,
Goedgevonden Clinic,26.89828,-26.1595,Rural,Clinic,Yes,Yes,No,Yes,No,No,No,Yes,Yes,Yes,No,No,Yes,No,Yes,Yes,No,No,No,,Registered,
Kgotso Clinic,27.12989,-26.3525,Rural,Clinic,Yes,Yes,No,Yes,No,No,No,Yes,Yes,Yes,No,No,Yes,No,Yes,Yes,No,No,No,,Not Registered,
Maruping Clinic,26.55,-25.95,Rural,Clinic,Yes,Yes,Yes,Yes,No,No,Yes,Yes,Yes,Yes,No,No,Yes,No,Yes,Yes,No,No,No,,Registered,
Weltevrede Clinic,25.49104,-26.3171,Rural,Clinic,Yes,Yes,No,No,No,No,No,Yes,Yes,Yes,No,No,Yes,No,Yes,Yes,No,No,No,,Registered,
Driefontein Clinic,25.97389,-25.1422,Rural,Clinic,Yes,Yes,Yes,Yes,No,No,No,Yes,Yes,Yes,No,No,Yes,No,Yes,Yes,No,No,No,,Registered,
Bergsig Clinic,19.89117,-33.7905,Urban,Clinic,Yes,Yes,Yes,Yes,No,No,No,Yes,Yes,Yes,Yes,No,Yes,No,Yes,Yes,No,No,No,,Registered,
Claremont Clinic,18.46612,-33.9819,Urban,Clinic,Yes,Yes,No,Yes,No,No,No,Yes,Yes,No,No,No,Yes,No,Yes,Yes,No,No,No,,Not Registered,
Victoria Hospital,18.45925,-34.0117,Urban,District Hospital,Yes,Yes,No,No,Yes,Yes,No,No,No,Yes,No,Yes,Yes,No,Yes,Yes,No,No,No,,Not Registered,
Masincedane Clinic,18.57834,-33.9851,Urban,Clinic,Yes,Yes,Yes,Yes,No,No,No,Yes,Yes,No,No,No,Yes,Yes,Yes,Yes,No,No,Yes,,Registered,
Silvertown Clinic,18.53469,-33.9664,Urban,Clinic,Yes,Yes,Yes,Yes,No,No,No,Yes,Yes,No,No,No,Yes,No,Yes,No,No,No,No,,Registered,
Rocklands Clinic,18.61075,-34.0647,Urban,Clinic,Yes,Yes,Yes,Yes,No,No,No,Yes,Yes,Yes,No,No,Yes,No,Yes,Yes,No,No,No,,Registered,
Heidelberg Clinic,20.96278,-34.1022,Urban,Clinic,Yes,Yes,Yes,Yes,No,No,Yes,Yes,Yes,Yes,Yes,No,Yes,No,Yes,Yes,No,No,No,,Registered,
Afsondering Clinic,28.94812,-30.17988,Rural,Clinic,Yes,Yes,No,Yes,No,No,No,Yes,Yes,Yes,No,Yes,Yes,No,Yes,Yes,No,No,No,,Registered,
Elukholweni Clinic,28.84811,-30.6329,Rural,Clinic,Yes,Yes,No,No,No,No,Yes,Yes,Yes,Yes,No,No,Yes,No,Yes,Yes,No,No,No,,Registered,
Isilindini Clinic,28.59078,-30.62,Rural,Clinic,Yes,Yes,No,No,No,No,No,Yes,Yes,Yes,No,No,Yes,No,Yes,Yes,No,No,No,,Not Registered,
SS Gida Hospital,27.1435,-32.6745,Peri-Urban,District Hospital,Yes,Yes,No,No,Yes,No,Yes,Yes,No,Yes,Yes,Yes,Yes,No,Yes,Yes,No,No,No,,Not Registered,
Khotsong TB Hospital,28.82118,-30.3481,Urban,Specialised TB Hospital,No,Yes,No,No,No,No,No,Yes,No,No,No,No,Yes,No,Yes,Yes,No,Yes,Yes,,Not Registered,
Likhetlane Clinic,28.52615,-30.357,Rural,Clinic,Yes,Yes,No,No,No,No,No,Yes,Yes,Yes,No,No,Yes,No,Yes,Yes,No,No,No,,Registered,
Madlangala Clinic,27.898844,-33.0018,Rural,Clinic,Yes,Yes,No,No,No,No,No,Yes,Yes,Yes,No,No,Yes,No,Yes,Yes,No,No,No,,Registered,
Magadla Clinic,28.682489,-30.338,Rural,Clinic,Yes,Yes,No,No,No,No,No,Yes,Yes,Yes,No,No,Yes,No,Yes,Yes,No,No,No,,Registered,
Maluti CHC,28.78891,-30.2658,Rural,Community Health Centre,Yes,Yes,No,Yes,No,No,No,Yes,Yes,Yes,Yes,Yes,Yes,No,Yes,Yes,No,No,No,,Registered,
Maluti Mobile 1,28.78891,-30.2658,Rural,Mobile Service,Yes,Yes,No,No,No,No,No,Yes,No,Yes,No,No,Yes,No,Yes,No,No,No,No,,Not Registered,
Matatiele Community Clinic,28.81461,-30.3343,Urban,Clinic,Yes,Yes,No,No,No,No,No,Yes,Yes,Yes,Yes,No,Yes,No,Yes,Yes,No,No,No,,Registered,
Matatiele Mobile 1,28.82437,-30.357,Urban,Mobile Service,Yes,Yes,No,No,No,No,No,Yes,No,Yes,No,No,Yes,No,Yes,No,No,No,No,,Not Registered,
Matatiele Mobile 2,28.82437,-30.357,Urban,Mobile Service,Yes,Yes,No,No,No,No,No,Yes,No,Yes,No,No,Yes,No,Yes,No,No,No,No,,Not Registered,
Mount Hargreaves Clinic,28.70661,-30.406,Rural,Clinic,Yes,Yes,No,Yes,No,No,No,Yes,Yes,Yes,No,No,Yes,No,Yes,Yes,No,No,No,,Registered,
Mpharane Clinic,28.47763,-30.2639,Rural,Clinic,Yes,Yes,No,No,No,No,No,Yes,Yes,Yes,No,No,Yes,No,Yes,Yes,No,No,No,,Registered,
Mvenyane Clinic,29.03634,-30.5525,Rural,Clinic,Yes,Yes,No,No,No,No,No,Yes,Yes,Yes,No,No,Yes,No,Yes,Yes,No,No,No,,Registered,
Mzongwana Clinic,29.05207,-30.1677,Rural,Clinic,Yes,Yes,No,No,No,No,No,Yes,Yes,Yes,No,No,Yes,No,Yes,Yes,No,No,No,,Not Registered,
Ntlola Clinic,29.07986,-30.5979,Rural,Clinic,Yes,Yes,No,No,No,No,No,Yes,Yes,Yes,No,No,Yes,No,Yes,Yes,No,No,No,,Registered,
Nyaniso Clinic,28.733564,-30.5588,Rural,Clinic,Yes,Yes,No,Yes,No,No,Yes,Yes,Yes,Yes,No,Yes,Yes,No,Yes,Yes,No,No,No,,Registered,
Queen's Mercy Clinic,28.56883,-30.2544,Rural,Clinic,Yes,Yes,No,No,No,No,No,Yes,Yes,Yes,No,No,Yes,No,Yes,Yes,No,No,No,,Registered,
Rolweni Clinic,28.81228,-30.5593,Rural,Clinic,Yes,Yes,No,No,No,No,No,Yes,Yes,Yes,No,No,Yes,No,Yes,Yes,No,No,No,,Registered,
Shepherds Hope Clinic,28.59292,-30.3468,Rural,Clinic,Yes,Yes,No,No,No,No,No,Yes,Yes,Yes,No,No,Yes,No,Yes,Yes,No,No,No,,Registered,
Thabachicha Clinic,28.39098,-30.3631,Rural,Clinic,Yes,Yes,No,Yes,No,No,No,Yes,Yes,Yes,No,No,Yes,No,Yes,Yes,No,No,No,,Registered,
Umtumase Clinic,28.543328,-30.5651,Rural,Clinic,Yes,Yes,No,No,No,No,No,Yes,Yes,Yes,No,No,Yes,No,Yes,Yes,No,No,No,,Registered,
Amadiba Clinic,30.179245,-31.0731,Rural,Clinic,Yes,Yes,No,Yes,No,No,Yes,Yes,Yes,Yes,Yes,No,Yes,No,Yes,Yes,No,No,No,,Registered,
Amandengane Clinic,29.75053,-31.0861,Rural,Clinic,Yes,Yes,No,Yes,No,No,No,Yes,Yes,Yes,Yes,No,Yes,No,Yes,Yes,No,No,No,,Not Registered,
Amantshangase Clinic,29.58773,-30.8396,Rural,Clinic,Yes,Yes,No,No,No,No,No,Yes,Yes,Yes,Yes,No,Yes,No,Yes,Yes,No,No,No,,Registered,
Baleni Clinic,29.97147,-31.1591,Rural,Clinic,Yes,Yes,No,No,No,No,No,Yes,Yes,Yes,Yes,No,Yes,No,Yes,Yes,No,No,No,,Registered,
Daliwonga Clinic,29.9072,-31.1052,Rural,Clinic,Yes,Yes,No,Yes,No,No,No,Yes,Yes,Yes,Yes,No,Yes,No,Yes,Yes,No,No,No,,Registered,
Greenville Gateway Clinic,30.09949,-30.919,Rural,Clinic,Yes,Yes,No,Yes,No,No,No,Yes,Yes,Yes,Yes,Yes,Yes,No,Yes,Yes,No,No,No,,Registered,
Greenville Hospital,30.108882,-30.9316,Rural,District Hospital,No,Yes,Yes,Yes,No,No,Yes,Yes,No,Yes,Yes,Yes,Yes,No,Yes,Yes,No,No,No,,Not Registered,
Greenville Mobile 1,30.10896,-30.9299,Rural,Mobile Service,Yes,Yes,No,No,No,No,No,Yes,No,Yes,No,No,Yes,No,No,No,No,No,No,,Not Registered,
Hlamandana Clinic,29.720125,-30.8176,Rural,Clinic,Yes,Yes,Yes,Yes,No,No,No,Yes,Yes,Yes,Yes,No,Yes,No,Yes,Yes,No,No,No,,Registered,
Imizizi Clinic,29.97082,-30.9089,Rural,Clinic,Yes,Yes,No,Yes,No,No,No,Yes,Yes,Yes,Yes,No,Yes,No,Yes,Yes,No,No,No,,Registered,
Isikelo Clinic,29.76793,-30.7866,Rural,Clinic,Yes,Yes,No,Yes,No,No,No,Yes,Yes,Yes,Yes,Yes,Yes,No,Yes,Yes,No,No,No,,Registered,
Kanyayo (Bizana) Clinic,29.8004,-31.0792,Rural,Clinic,Yes,Yes,No,No,No,No,No,Yes,Yes,Yes,Yes,Yes,Yes,No,Yes,Yes,No,No,No,,Not Registered,
Makwantini Clinic,29.99033,-31.1059,Rural,Clinic,Yes,Yes,No,Yes,No,No,No,Yes,Yes,Yes,Yes,No,Yes,No,Yes,Yes,No,No,No,,Not Registered,
Malongwana Clinic,29.36362,-31.0081,Rural,Clinic,Yes,Yes,No,No,No,No,No,Yes,Yes,Yes,Yes,No,Yes,No,Yes,Yes,No,No,No,,Not Registered,
Meje Clinic,29.8747,-31.0502,Rural,Clinic,Yes,Yes,No,Yes,No,No,No,Yes,Yes,Yes,Yes,No,Yes,No,Yes,Yes,No,No,No,,Registered,
Mfundambini Clinic,29.666544,-30.8993,Rural,Clinic,Yes,Yes,No,Yes,No,No,No,Yes,Yes,Yes,Yes,No,Yes,No,Yes,Yes,No,No,No,,Not Registered,
Mngungu Clinic,30.03207,-31.0562,Rural,Clinic,Yes,Yes,No,Yes,No,No,No,Yes,Yes,Yes,Yes,Yes,Yes,No,Yes,Yes,No,No,No,,Not Registered,
Mpetsheni Clinic,29.80192,-30.9955,Rural,Clinic,Yes,Yes,No,No,No,No,No,Yes,Yes,Yes,Yes,No,Yes,No,Yes,Yes,No,No,No,,Registered,
Ndela Clinic,29.713473,-30.9479,Rural,Clinic,Yes,Yes,No,Yes,No,No,No,Yes,Yes,Yes,Yes,No,Yes,No,Yes,Yes,No,No,No,,Registered,
Ntlenzi Clinic,29.612515,-30.9508,Rural,Clinic,Yes,Yes,No,No,No,No,No,Yes,Yes,Yes,Yes,No,Yes,No,Yes,Yes,No,No,No,,Registered,
Qasa Clinic,29.41773,-31.0268,Rural,Clinic,Yes,Yes,No,Yes,No,No,No,Yes,Yes,Yes,Yes,No,Yes,No,Yes,Yes,No,No,No,,Registered,
Qobo Clinic,29.705825,-30.7349,Rural,Clinic,Yes,Yes,No,Yes,No,No,No,Yes,Yes,Yes,Yes,Yes,Yes,No,Yes,Yes,No,No,No,,Registered,
St Patrick's Gateway Clinic,29.85164,-30.8653,Urban,Clinic,Yes,Yes,No,Yes,No,No,No,Yes,Yes,Yes,Yes,No,Yes,No,Yes,Yes,No,No,No,,Registered,
St Patrick's Hospital,29.85162,-30.8654,Urban,District Hospital,No,Yes,No,No,Yes,No,Yes,Yes,No,Yes,Yes,Yes,Yes,No,Yes,Yes,No,No,No,,Not Registered,
Willowvale CHC,28.49823,-32.2654,Peri-Urban,Community Health Centre,Yes,Yes,No,Yes,No,No,No,Yes,Yes,Yes,Yes,Yes,Yes,No,Yes,Yes,No,No,No,,Registered,
St Patrick's Mobile 1,29.85164,-30.8653,Rural,Mobile Service,Yes,Yes,No,No,No,No,No,Yes,No,Yes,No,No,Yes,No,Yes,No,No,Yes,No,,Not Registered,
Tsawana Clinic,29.91565,-30.807,Rural,Clinic,Yes,Yes,No,No,No,No,No,Yes,Yes,Yes,Yes,No,Yes,No,Yes,Yes,No,No,No,,Registered,
Dungu Clinic,29.30276,-30.9569,Rural,Clinic,Yes,Yes,No,Yes,No,No,No,Yes,Yes,Yes,Yes,No,Yes,No,Yes,Yes,No,No,No,,Registered,
Matubeni Clinic,29.16105,-30.9651,Rural,Clinic,Yes,Yes,No,No,No,No,No,Yes,Yes,Yes,No,No,Yes,No,Yes,Yes,No,No,No,,Registered,
Mfundisweni Clinic,29.51997,-30.8983,Rural,Clinic,Yes,Yes,No,Yes,No,No,No,Yes,Yes,Yes,Yes,No,Yes,No,Yes,Yes,No,No,No,,Registered,
Mnceba Clinic,29.21214,-30.8947,Rural,Clinic,Yes,Yes,No,Yes,No,No,No,Yes,Yes,Yes,Yes,No,Yes,No,Yes,Yes,No,No,No,,Registered,
Butterworth Hospital,28.13877,-32.3323,Urban,District Hospital,Yes,Yes,Yes,Yes,Yes,No,Yes,Yes,No,Yes,Yes,Yes,Yes,No,Yes,Yes,No,No,No,,Registered,
Ndawenzima Clinic,29.361821,-30.9095,Rural,Clinic,Yes,Yes,No,No,No,No,No,Yes,Yes,Yes,Yes,No,Yes,No,Yes,Yes,No,Yes,Yes,,Registered,
Ntshentshe Clinic,29.53514,-30.7076,Rural,Clinic,Yes,Yes,No,No,No,No,No,Yes,Yes,Yes,No,No,Yes,No,Yes,Yes,No,No,No,,Registered,
Qaqa Clinic,29.2179,-31.0204,Rural,Clinic,Yes,Yes,No,Yes,No,No,No,Yes,Yes,Yes,Yes,No,Yes,No,Yes,Yes,No,No,No,,Registered,
Sebeni Clinic,29.18,-31.16,Rural,Clinic,Yes,Yes,No,No,No,No,No,Yes,Yes,Yes,Yes,No,Yes,No,Yes,Yes,No,No,No,,Registered,
Sigidi Clinic,29.351461,-30.9424,Rural,Clinic,Yes,Yes,No,No,No,No,No,Yes,Yes,Yes,No,No,Yes,No,Yes,Yes,No,No,No,,Registered,
Sipetu Gateway Clinic,29.18725,-31.0917,Rural,Clinic,No,No,No,No,No,No,No,No,No,No,No,No,Yes,No,No,No,No,No,No,,Not Registered,
Tabankulu CHC,29.29951,-30.9633,Peri-Urban,Community Health Centre,Yes,Yes,No,No,No,No,Yes,Yes,Yes,Yes,Yes,Yes,Yes,No,Yes,Yes,No,No,No,,Registered,
Tabankulu Mobile 1,29.29951,-30.9633,Peri-Urban,Mobile Service,Yes,Yes,No,No,No,No,No,Yes,No,No,No,No,Yes,No,Yes,No,No,No,No,,Not Registered,
Zulu Clinic,29.30279,-30.9835,Rural,Clinic,Yes,Yes,No,Yes,No,No,No,Yes,Yes,Yes,Yes,No,Yes,No,Yes,Yes,No,No,No,,Registered,
Cancele Clinic,28.78897,-30.8479,Rural,Clinic,Yes,Yes,No,No,No,No,No,Yes,Yes,Yes,Yes,No,Yes,No,Yes,Yes,No,No,No,,Registered,
Dundee Clinic,29.4183,-30.7489,Rural,Clinic,Yes,Yes,No,No,No,No,No,Yes,Yes,Yes,Yes,Yes,Yes,No,Yes,Yes,No,No,No,,Registered,
Lubaleko Clinic,29.36698,-30.6949,Rural,Clinic,Yes,Yes,No,Yes,No,No,No,Yes,Yes,Yes,Yes,No,Yes,No,Yes,Yes,No,No,No,,Registered,
Lugangeni Clinic,28.93437,-30.8333,Rural,Clinic,Yes,Yes,No,Yes,No,No,No,Yes,Yes,Yes,Yes,No,Yes,No,Yes,Yes,No,No,No,,Registered,
Luyengweni Clinic,28.76937,-30.6528,Rural,Clinic,Yes,Yes,No,Yes,No,No,No,Yes,Yes,Yes,No,No,Yes,No,Yes,Yes,No,No,No,,Registered,
Machibini Clinic (Kwabhaca),28.71708,-30.7267,Rural,Clinic,Yes,Yes,No,Yes,No,No,No,Yes,Yes,Yes,Yes,No,Yes,No,Yes,Yes,No,No,No,,Registered,
Mangqamzeni Clinic,29.07859,-30.9934,Rural,Clinic,Yes,Yes,No,Yes,No,No,No,Yes,Yes,Yes,Yes,No,Yes,No,Yes,Yes,No,No,No,,Registered,
Mapheleni Clinic,29.25385,-30.7844,Rural,Clinic,Yes,Yes,No,No,No,No,No,Yes,Yes,Yes,Yes,No,Yes,No,Yes,Yes,No,No,No,,Registered,
Mary Teresa Mobile 1,28.99563,-30.9009,Rural,Mobile Service,Yes,Yes,Yes,No,No,No,No,Yes,Yes,Yes,Yes,No,Yes,No,Yes,No,No,No,No,,Not Registered,
Nqamakwe CHC,27.93613,-32.2082,Rural,Community Health Centre,Yes,Yes,Yes,Yes,No,No,No,Yes,Yes,Yes,Yes,No,Yes,No,Yes,Yes,No,No,No,,Registered,
Mhlotsheni Clinic,29.09093,-30.8027,Rural,Clinic,Yes,Yes,Yes,Yes,No,No,No,Yes,Yes,Yes,No,No,Yes,No,Yes,Yes,No,Yes,Yes,,Registered,
Mkemane Clinic,29.01856,-30.668,Rural,Clinic,Yes,Yes,No,Yes,No,No,No,Yes,Yes,Yes,Yes,No,Yes,No,Yes,Yes,No,No,No,,Registered,
Mntwana Clinic,28.9237,-30.9767,Rural,Clinic,Yes,Yes,Yes,Yes,No,No,No,Yes,Yes,Yes,Yes,No,Yes,No,Yes,Yes,No,No,No,,Registered,
Mount Ayliff Gateway Clinic,29.35965,-30.8051,Urban,Clinic,Yes,Yes,Yes,Yes,No,No,No,Yes,Yes,Yes,No,Yes,Yes,Yes,Yes,Yes,No,No,No,,Registered,
Mount Ayliff Hospital,29.3596,-30.8052,Urban,District Hospital,No,Yes,Yes,Yes,Yes,No,Yes,Yes,No,Yes,Yes,Yes,Yes,No,Yes,Yes,No,No,No,,Not Registered,
Mount Ayliff Mobile 1,29.3596,-30.8052,Rural,Mobile Service,Yes,Yes,No,No,No,No,No,Yes,Yes,Yes,Yes,No,Yes,No,Yes,No,No,No,No,,Not Registered,
Mount Frere Gateway Clinic,28.99564,-30.9009,Urban,Clinic,Yes,Yes,Yes,Yes,No,No,No,Yes,Yes,Yes,Yes,No,Yes,No,Yes,Yes,No,No,No,,Registered,
Tafalofefe Hospital,28.51829,-32.4102,Rural,District Hospital,Yes,Yes,Yes,No,Yes,No,Yes,Yes,No,Yes,Yes,No,Yes,No,Yes,Yes,No,No,No,,Not Registered,
Mpoza Clinic (Mount Frere),29.06932,-30.7318,Rural,Clinic,Yes,Yes,No,Yes,No,No,No,Yes,Yes,Yes,Yes,Yes,Yes,No,Yes,Yes,No,Yes,Yes,,Registered,
Mwaca Clinic,29.23817,-30.6399,Rural,Clinic,Yes,Yes,No,Yes,No,No,No,Yes,Yes,Yes,Yes,No,Yes,No,Yes,Yes,No,No,No,,Not Registered,
Ntlabeni Clinic,28.92245,-30.7422,Rural,Clinic,Yes,Yes,No,No,No,No,No,Yes,Yes,Yes,Yes,No,Yes,No,Yes,Yes,No,No,No,,Registered,
Ntsizwa Clinic,29.24517,-30.7381,Rural,Clinic,Yes,Yes,Yes,Yes,No,No,No,Yes,Yes,Yes,Yes,No,Yes,No,Yes,Yes,No,No,No,,Registered,
Qwidlana Clinic,28.708077,-30.7988,Rural,Clinic,Yes,Yes,No,Yes,No,No,No,Yes,Yes,Yes,Yes,No,Yes,No,Yes,Yes,No,No,No,,Registered,
Rode Clinic,29.13832,-30.8257,Rural,Clinic,Yes,Yes,Yes,Yes,No,No,No,Yes,Yes,Yes,Yes,No,Yes,No,Yes,Yes,No,No,No,,Registered,
Tela Clinic,29.45606,-30.759,Rural,Clinic,Yes,Yes,No,No,No,No,No,Yes,Yes,Yes,Yes,No,Yes,No,Yes,Yes,No,No,No,,Not Registered,
Tshungwana Clinic,29.02733,-30.9776,Rural,Clinic,Yes,Yes,No,Yes,No,No,No,Yes,Yes,Yes,Yes,No,Yes,Yes,Yes,Yes,No,No,No,,Registered,
Amabele Clinic,27.52389,-32.6633,Rural,Clinic,Yes,Yes,Yes,Yes,No,No,No,Yes,Yes,Yes,Yes,No,Yes,No,Yes,Yes,No,No,No,,Registered,
Bhisho Ethembeni Mobile 1,27.43183,-32.7628,Rural,Mobile Service,Yes,Yes,No,No,No,No,No,Yes,No,Yes,No,No,Yes,No,Yes,No,No,No,No,,Not Registered,
Bolo Mobile 1,27.63666,-32.3805,Rural,Mobile Service,Yes,Yes,No,No,No,No,No,Yes,No,Yes,No,No,Yes,No,Yes,No,No,No,No,,Not Registered,
Burnshill Clinic,27.0551,-32.769,Rural,Clinic,Yes,Yes,No,No,No,No,No,Yes,Yes,Yes,Yes,No,Yes,No,Yes,Yes,No,No,No,,Registered,
Cata Clinic,27.12479,-32.5948,Rural,Clinic,Yes,Yes,No,No,No,No,No,Yes,Yes,Yes,Yes,Yes,Yes,No,Yes,Yes,No,No,No,,Not Registered,
Cathcart Clinic,27.14451,-32.2983,Urban,Clinic,Yes,Yes,No,Yes,No,No,No,Yes,Yes,Yes,Yes,No,Yes,No,Yes,Yes,No,No,No,,Registered,
Cathcart Hospital,27.13691,-32.2902,Urban,District Hospital,No,Yes,No,Yes,No,No,No,Yes,Yes,Yes,Yes,No,Yes,No,Yes,Yes,No,No,No,,Not Registered,
Cathcart Mobile 1,27.1444,-32.2983,Rural,Mobile Service,Yes,Yes,No,No,No,No,No,Yes,No,Yes,No,No,Yes,No,Yes,No,No,No,No,,Not Registered,
Cathcart Mobile 2,27.14458,-32.2983,Rural,Mobile Service,Yes,Yes,No,No,No,No,No,Yes,No,Yes,No,No,Yes,No,Yes,No,No,No,No,,Not Registered,
Cumakala 1 Clinic,27.44754,-32.5571,Urban,Clinic,Yes,Yes,No,No,No,No,No,Yes,Yes,Yes,Yes,No,Yes,No,Yes,Yes,No,No,No,,Registered,
Cumakala 2 Clinic,27.44868,-32.5629,Urban,Clinic,Yes,Yes,No,No,No,No,No,Yes,Yes,Yes,Yes,No,Yes,No,Yes,Yes,No,No,No,,Registered,
Nompumelelo (Peddie) Hospital,27.13244,-33.2092,Urban,District Hospital,Yes,Yes,Yes,Yes,Yes,No,Yes,Yes,No,Yes,Yes,Yes,Yes,No,Yes,Yes,No,No,No,,Registered,
Daliwe Clinic,27.15127,-32.3019,Urban,Clinic,Yes,Yes,No,No,No,No,No,Yes,Yes,Yes,Yes,No,Yes,No,Yes,Yes,No,Yes,No,,Registered,
Dohne Mobile 1,27.4639,-32.5251,Rural,Mobile Service,Yes,Yes,No,No,No,No,No,Yes,No,No,No,No,Yes,No,Yes,No,No,No,No,,Not Registered,
Donnington Clinic,27.42576,-32.7236,Rural,Clinic,Yes,Yes,No,No,No,No,No,Yes,Yes,Yes,Yes,No,Yes,Yes,Yes,Yes,No,No,No,,Registered,
Gxulu Clinic,27.10986,-32.6452,Rural,Clinic,Yes,Yes,No,No,No,No,No,Yes,Yes,Yes,Yes,No,Yes,No,Yes,Yes,No,No,No,,Not Registered,
Kati-Kati Clinic,27.15709,-32.2882,Peri-Urban,Clinic,Yes,Yes,Yes,No,No,No,No,Yes,Yes,Yes,Yes,No,Yes,No,Yes,Yes,No,No,No,,Registered,
Keiskammahoek Mobile 1,27.1435,-32.6745,Rural,Mobile Service,Yes,Yes,No,Yes,No,No,No,Yes,No,Yes,No,No,Yes,No,Yes,No,No,No,No,,Not Registered,
King William's Town Rural Mobile 1,27.39542,-32.8794,Rural,Mobile Service,Yes,Yes,No,No,No,No,No,Yes,Yes,Yes,No,No,Yes,No,Yes,No,No,No,No,,Not Registered,
Kubusi Clinic,27.41285,-32.5943,Urban,Clinic,Yes,Yes,No,No,No,No,No,Yes,Yes,Yes,Yes,No,Yes,No,Yes,Yes,No,No,No,,Registered,
Lenye Clinic,27.08574,-32.7494,Rural,Clinic,Yes,Yes,No,No,No,No,No,Yes,Yes,Yes,Yes,No,Yes,No,Yes,Yes,No,No,No,,Registered,
Lower Zingcuka Clinic,27.09884,-32.7191,Rural,Clinic,Yes,Yes,No,No,No,No,No,Yes,Yes,Yes,Yes,No,Yes,No,Yes,Yes,No,No,No,,Registered,
Mgwali Clinic,27.60563,-32.4611,Rural,Clinic,Yes,Yes,No,No,No,No,No,Yes,Yes,Yes,Yes,No,Yes,No,Yes,Yes,No,No,No,,Not Registered,
Ntaba ka Ndoda Clinic,27.10702,-32.8183,Rural,Clinic,Yes,Yes,No,Yes,No,No,No,Yes,Yes,Yes,Yes,No,Yes,No,Yes,Yes,No,No,No,,Registered,
Adelaide Hospital,26.29427,-32.7009,Urban,District Hospital,No,Yes,No,Yes,Yes,No,Yes,Yes,No,Yes,Yes,No,Yes,No,Yes,No,No,No,No,,Registered,
Philani Clinic (King William's Town),27.55359,-32.7002,Urban,Clinic,Yes,Yes,No,Yes,No,No,No,Yes,Yes,Yes,Yes,No,Yes,No,Yes,Yes,No,Yes,No,,Registered,
Rabula Clinic,27.16602,-32.7486,Rural,Clinic,Yes,Yes,No,No,No,No,No,Yes,Yes,Yes,Yes,Yes,Yes,No,Yes,Yes,No,No,No,,Registered,
SS Gida Gateway Clinic,27.14364,-32.6745,Peri-Urban,Clinic,Yes,Yes,No,No,No,No,No,Yes,Yes,Yes,No,No,Yes,No,Yes,Yes,No,No,No,,Registered,
St Matthew's Clinic,27.18104,-32.6477,Rural,Clinic,Yes,Yes,No,No,No,No,No,Yes,Yes,Yes,Yes,No,Yes,No,Yes,Yes,No,No,No,,Registered,
Stutterheim Clinic,27.42647,-32.5694,Urban,Clinic,Yes,Yes,No,No,No,No,No,Yes,Yes,Yes,No,No,Yes,No,Yes,Yes,No,No,No,,Registered,
Bedford Hospital,26.083139,-32.6762,Urban,District Hospital,Yes,Yes,No,Yes,No,No,Yes,Yes,Yes,Yes,Yes,No,Yes,No,Yes,Yes,No,No,No,,Not Registered,
Stutterheim Hospital,27.419427,-32.5713,Urban,District Hospital,No,Yes,Yes,Yes,Yes,No,Yes,Yes,Yes,Yes,Yes,No,Yes,No,Yes,Yes,No,Yes,No,,Not Registered,
Tsomo Mobile 1 (Amahlathi),27.11363,-32.6859,Rural,Mobile Service,No,Yes,No,No,No,No,No,No,No,No,No,No,Yes,No,No,No,No,No,No,,Not Registered,
Wartburg Clinic,27.42067,-32.4447,Peri-Urban,Clinic,Yes,Yes,No,No,No,No,No,Yes,Yes,Yes,Yes,No,Yes,No,Yes,Yes,No,No,No,,Registered,
Zalara Clinic,27.10132,-32.5953,Rural,Clinic,Yes,Yes,No,Yes,No,No,No,Yes,Yes,Yes,Yes,No,Yes,No,Yes,Yes,No,No,No,,Not Registered,
Cwili Clinic,28.36332,-32.677,Urban,Clinic,Yes,Yes,No,No,No,No,No,Yes,Yes,Yes,Yes,No,Yes,No,Yes,Yes,No,No,No,,Registered,
Komga Clinic,27.88549,-32.5817,Urban,Clinic,Yes,Yes,No,Yes,No,No,No,Yes,Yes,Yes,Yes,No,Yes,No,Yes,Yes,No,No,No,,Registered,
Komga Hospital,27.89576,-32.576,Urban,District Hospital,Yes,Yes,No,No,No,No,Yes,Yes,Yes,Yes,Yes,No,Yes,No,Yes,Yes,No,No,No,,Not Registered,
Soto Clinic,28.13394,-32.6985,Rural,Clinic,Yes,Yes,No,Yes,No,No,No,Yes,Yes,Yes,Yes,No,Yes,No,Yes,Yes,No,No,No,,Registered,
Badi Clinic,28.66265,-32.287,Rural,Clinic,Yes,Yes,No,No,No,No,No,Yes,Yes,Yes,No,No,Yes,No,Yes,Yes,No,No,No,,Not Registered,
Bolotwa Clinic (Idutywa),28.29209,-31.917,Rural,Clinic,Yes,Yes,No,No,No,No,No,Yes,Yes,Yes,No,No,Yes,No,Yes,Yes,No,No,No,,Registered,
Bomvana Clinic,28.80161,-32.1132,Rural,Clinic,Yes,Yes,No,Yes,No,No,No,Yes,Yes,Yes,Yes,No,Yes,No,Yes,Yes,No,No,No,,Registered,
Fort Malan Clinic,28.52353,-32.1513,Rural,Clinic,Yes,Yes,No,No,No,No,No,Yes,Yes,Yes,No,No,Yes,No,Yes,Yes,No,No,No,,Registered,
Gwadana Clinic,28.28887,-32.1429,Rural,Clinic,Yes,Yes,No,Yes,No,No,No,Yes,Yes,Yes,No,No,Yes,No,Yes,Yes,No,No,No,,Registered,
Gwadu Clinic,28.66774,-32.2203,Rural,Clinic,Yes,Yes,No,Yes,No,No,No,Yes,Yes,Yes,No,No,Yes,No,Yes,Yes,No,No,No,,Not Registered,
Hobeni Clinic,28.87571,-32.175,Rural,Clinic,Yes,Yes,No,No,No,No,No,Yes,Yes,Yes,No,No,Yes,No,Yes,Yes,No,No,No,,Registered,
Idutywa Mobile 1,28.29909,-32.097,Rural,Mobile Service,Yes,Yes,No,No,No,No,No,Yes,No,Yes,No,No,Yes,No,Yes,No,No,No,No,,Not Registered,
Idutywa Mobile 2,28.29909,-32.097,Rural,Mobile Service,No,No,No,No,No,No,No,No,No,No,No,No,Yes,No,No,No,No,No,No,,Not Registered,
Idutywa Nqabara Clinic,28.45375,-32.1009,Rural,Clinic,Yes,Yes,No,No,No,No,No,Yes,Yes,Yes,No,No,Yes,No,Yes,Yes,No,No,No,,Registered,
Idutywa Village CHC,28.29909,-32.097,Peri-Urban,Community Health Centre,Yes,Yes,No,Yes,No,No,No,Yes,Yes,Yes,Yes,No,Yes,No,Yes,Yes,No,No,No,,Registered,
Jingqi Clinic,28.65779,-32.3331,Rural,Clinic,Yes,Yes,No,Yes,No,No,No,Yes,Yes,Yes,No,No,Yes,No,Yes,Yes,No,No,No,,Not Registered,
Keti Clinic,28.1156,-32.0421,Rural,Clinic,Yes,Yes,No,No,No,No,No,Yes,Yes,Yes,No,No,Yes,No,Yes,Yes,No,No,No,,Not Registered,
Kotyana Clinic,28.99938,-32.0437,Rural,Clinic,Yes,Yes,No,No,No,No,No,Yes,Yes,Yes,No,No,Yes,No,Yes,Yes,No,No,No,,Not Registered,
Kwa-Mkholoza Clinic,28.59504,-32.3206,Rural,Clinic,Yes,Yes,No,Yes,No,No,No,Yes,Yes,Yes,No,No,Yes,No,Yes,Yes,No,No,No,,Not Registered,
Lota Clinic,28.33632,-31.8632,Rural,Clinic,Yes,Yes,No,Yes,No,No,No,Yes,Yes,Yes,No,No,Yes,No,Yes,Yes,No,No,No,,Registered,
Madwaleni Hospital,28.87875,-32.0958,Rural,District Hospital,No,Yes,Yes,Yes,Yes,No,Yes,Yes,No,Yes,Yes,Yes,Yes,No,Yes,Yes,No,No,No,,Not Registered,
Mahasana Clinic,28.73444,-32.3383,Rural,Clinic,Yes,Yes,No,Yes,No,No,No,Yes,Yes,Yes,No,No,Yes,No,Yes,Yes,No,No,No,,Not Registered,
Melitafa Clinic,28.68074,-32.0714,Rural,Clinic,Yes,Yes,No,No,No,No,No,Yes,Yes,Yes,No,No,Yes,No,Yes,Yes,No,No,No,,Not Registered,
Mpame Clinic,29.041834,-32.0979,Rural,Clinic,Yes,Yes,No,Yes,No,No,No,Yes,Yes,Yes,No,No,Yes,No,Yes,Yes,No,No,No,,Not Registered,
Mpozolo Clinic,28.77911,-32.1816,Rural,Clinic,Yes,Yes,No,No,No,No,No,Yes,Yes,Yes,No,No,Yes,No,Yes,Yes,No,No,No,,Registered,
Mqhele Clinic,28.89198,-31.9942,Rural,Clinic,Yes,Yes,No,No,No,No,No,Yes,Yes,No,No,No,Yes,No,Yes,Yes,No,No,No,,Not Registered,
Msendo Clinic,28.7894,-32.2709,Rural,Clinic,Yes,Yes,No,No,No,No,No,Yes,Yes,Yes,No,No,Yes,No,Yes,Yes,No,No,No,,Not Registered,
Nkanya Clinic,28.95035,-32.152,Rural,Clinic,Yes,Yes,No,No,No,No,No,Yes,Yes,Yes,Yes,No,Yes,Yes,Yes,Yes,No,No,No,,Registered,
ec Victoria Hospital,26.84678,-32.7752,Urban,District Hospital,Yes,Yes,Yes,No,Yes,No,Yes,Yes,No,Yes,Yes,Yes,Yes,No,Yes,Yes,No,No,No,,Registered,
Nqabara Clinic,28.72081,-32.2466,Rural,Clinic,Yes,Yes,No,No,No,No,No,Yes,Yes,Yes,No,No,Yes,Yes,Yes,Yes,No,Yes,Yes,,Not Registered,
Nqabeni Clinic,28.58493,-32.1188,Rural,Clinic,Yes,Yes,No,No,No,No,No,Yes,Yes,Yes,No,No,Yes,No,Yes,Yes,No,No,No,,Registered,
Nqadu Clinic (Mbhashe),28.42111,-32.2357,Rural,Clinic,Yes,Yes,No,Yes,No,No,No,Yes,Yes,Yes,No,No,Yes,No,Yes,Yes,No,No,No,,Not Registered,
Nyhwara Clinic,28.37329,-31.9441,Rural,Clinic,Yes,Yes,No,No,No,No,No,Yes,Yes,Yes,No,No,Yes,No,Yes,Yes,No,No,No,,Registered,
Qwaninga Clinic,28.62071,-32.3983,Rural,Clinic,Yes,Yes,No,Yes,No,No,No,Yes,Yes,Yes,No,No,Yes,No,Yes,Yes,No,No,No,,Not Registered,
Soga Clinic,28.73821,-32.0292,Rural,Clinic,Yes,Yes,No,Yes,No,No,No,Yes,Yes,Yes,Yes,No,Yes,No,Yes,Yes,No,No,No,,Registered,
Sundwana Clinic,28.5514,-32.0956,Rural,Clinic,Yes,Yes,No,No,No,No,No,Yes,Yes,Yes,No,No,Yes,No,Yes,Yes,No,No,No,,Registered,
Taleni Clinic,28.38973,-32.161,Rural,Clinic,Yes,Yes,No,No,No,No,No,Yes,Yes,Yes,No,No,Yes,No,Yes,Yes,No,No,No,,Not Registered,
Vukukhanye Gateway Clinic,28.87835,-32.0956,Rural,Clinic,Yes,Yes,No,Yes,No,No,No,Yes,Yes,Yes,No,No,Yes,No,Yes,Yes,No,No,No,,Registered,
Willowvale Mobile 1,28.49823,-32.2654,Rural,Mobile Service,Yes,Yes,No,No,No,No,No,Yes,No,Yes,No,No,Yes,No,Yes,No,No,No,No,,Not Registered,
Willowvale Mobile 2,28.49823,-32.2654,Rural,Mobile Service,No,No,No,No,No,No,No,No,No,No,No,No,Yes,No,No,No,No,No,No,,Not Registered,
Xhora CHC,28.68389,-31.9678,Peri-Urban,Community Health Centre,Yes,Yes,Yes,Yes,No,No,No,Yes,Yes,Yes,Yes,No,Yes,No,Yes,Yes,No,No,No,,Registered,
Xhora Mobile 1,28.68389,-31.9678,Rural,Mobile Service,Yes,Yes,No,No,No,No,No,Yes,No,No,No,No,Yes,No,Yes,No,No,No,No,,Not Registered,
Bhisho Hospital,27.45516,-32.8277,Rural,District Hospital,Yes,Yes,Yes,Yes,Yes,No,No,Yes,No,Yes,Yes,Yes,Yes,No,Yes,Yes,No,No,No,,Registered,
Xhora Mobile 2,28.68389,-31.9678,Rural,Mobile Service,No,No,No,No,No,No,No,No,No,No,No,No,Yes,No,No,No,No,Yes,Yes,,Not Registered,
Butterworth Gateway Clinic,28.13877,-32.3323,Urban,Clinic,Yes,Yes,No,No,No,No,No,Yes,Yes,Yes,No,No,Yes,No,Yes,Yes,No,No,No,,Registered,
Butterworth Mobile 1,28.13877,-32.3323,Rural,Mobile Service,Yes,Yes,No,No,No,No,No,Yes,Yes,Yes,No,No,Yes,No,Yes,No,No,No,No,,Not Registered,
Dr CL Bikitsha Clinic,28.10553,-32.2782,Rural,Clinic,Yes,Yes,No,Yes,No,No,No,Yes,Yes,Yes,Yes,No,Yes,No,Yes,Yes,No,No,No,,Not Registered,
Gcaleka Clinic,28.31987,-32.3379,Rural,Clinic,Yes,Yes,No,No,No,No,No,Yes,Yes,Yes,No,No,Yes,No,Yes,Yes,No,No,No,,Not Registered,
Cecilia Makiwane Hospital,27.74422,-32.9278,Urban,Regional Hospital,Yes,Yes,Yes,Yes,Yes,No,No,No,Yes,No,Yes,Yes,Yes,No,Yes,Yes,No,No,No,,Registered,
Gqunqe Clinic,28.56265,-32.4688,Rural,Clinic,Yes,Yes,No,No,No,No,No,Yes,Yes,Yes,No,No,Yes,No,Yes,Yes,No,Yes,Yes,,Not Registered,
Grainvalley Clinic,28.04856,-32.2376,Rural,Clinic,Yes,Yes,No,Yes,No,No,No,Yes,Yes,Yes,No,No,Yes,No,Yes,Yes,No,No,No,,Not Registered,
Hebe-Hebe Clinic,27.83032,-32.236,Rural,Clinic,Yes,Yes,Yes,No,No,No,No,Yes,Yes,Yes,No,No,Yes,Yes,Yes,Yes,No,No,No,,Registered,
Highview Clinic,27.94669,-32.4351,Rural,Clinic,Yes,Yes,No,No,No,No,No,Yes,Yes,Yes,No,No,Yes,No,Yes,Yes,No,No,No,,Not Registered,
Ibika Clinic,28.22048,-32.2835,Rural,Clinic,Yes,Yes,No,No,No,No,No,Yes,Yes,Yes,No,No,Yes,No,Yes,Yes,No,No,No,,Not Registered,
Kotana Clinic,28.14648,-32.1487,Rural,Clinic,Yes,Yes,No,No,No,No,No,Yes,Yes,Yes,No,No,Yes,No,Yes,Yes,No,No,No,,Registered,
Macibe Clinic,28.28549,-32.478,Rural,Clinic,Yes,Yes,No,No,No,No,No,Yes,Yes,Yes,No,No,Yes,No,Yes,Yes,No,No,No,,Registered,
Mgcwe Clinic,28.202157,-32.1396,Rural,Clinic,Yes,Yes,No,No,No,No,No,Yes,Yes,Yes,No,No,Yes,No,Yes,Yes,No,No,No,,Registered,
Mnyibashe Clinic,27.80417,-32.1293,Rural,Clinic,Yes,Yes,No,No,No,No,No,Yes,Yes,Yes,No,No,Yes,No,Yes,Yes,No,No,No,,Not Registered,
Mpukane Clinic,27.87466,-32.331,Rural,Clinic,Yes,Yes,No,No,No,No,No,Yes,Yes,Yes,No,No,Yes,No,Yes,Yes,No,No,No,,Registered,
Mqambeli Clinic,28.10819,-32.4203,Rural,Clinic,Yes,Yes,No,No,No,No,No,Yes,Yes,Yes,No,No,Yes,No,Yes,Yes,No,No,No,,Registered,
Ncizele Clinic,28.43316,-32.593,Rural,Clinic,Yes,Yes,No,No,No,No,No,Yes,Yes,Yes,No,No,Yes,No,Yes,Yes,No,No,No,,Not Registered,
Empilweni Gompo CHC,27.84894,-33.0145,Urban,Community Health Centre,Yes,Yes,Yes,Yes,No,No,Yes,Yes,Yes,Yes,Yes,Yes,Yes,No,Yes,Yes,No,No,No,,Registered,
Ndabakazi Clinic,28.03817,-32.3478,Rural,Clinic,Yes,Yes,No,No,No,No,No,Yes,Yes,Yes,No,No,Yes,No,Yes,Yes,No,Yes,Yes,,Registered,
Ngqusi Clinic,28.40364,-32.4882,Rural,Clinic,Yes,Yes,No,No,No,No,No,Yes,Yes,Yes,No,No,Yes,No,Yes,Yes,No,No,No,,Not Registered,
Nozuko Clinic,28.16744,-32.3235,Urban,Clinic,Yes,Yes,No,No,No,No,No,Yes,Yes,Yes,No,No,Yes,Yes,Yes,Yes,No,No,No,,Registered,
Frere Hospital,27.89156,-32.9959,Urban,Provincial Tertiary Hospital,Yes,Yes,Yes,Yes,Yes,No,No,No,No,No,Yes,Yes,Yes,No,Yes,Yes,No,No,No,,Registered,
Nqamakwe Mobile 1,27.93621,-32.2083,Rural,Mobile Service,Yes,Yes,No,No,No,No,No,Yes,No,Yes,No,No,Yes,No,Yes,No,No,Yes,Yes,,Not Registered,
Nqancule Clinic,27.79323,-32.3521,Rural,Clinic,Yes,Yes,No,No,No,No,No,Yes,Yes,Yes,No,No,Yes,No,Yes,Yes,No,No,No,,Not Registered,
Ntseshe Clinic,28.09913,-32.0942,Rural,Clinic,Yes,Yes,No,No,No,No,No,Yes,Yes,Yes,No,No,Yes,No,Yes,Yes,No,No,No,,Registered,
Qina Clinic,28.18251,-32.4548,Rural,Clinic,Yes,Yes,No,No,No,No,No,Yes,Yes,No,No,No,Yes,No,Yes,Yes,No,No,No,,Registered,
Qolora-By-Sea Clinic,28.41432,-32.6335,Rural,Clinic,Yes,Yes,No,No,No,No,No,Yes,Yes,Yes,No,No,Yes,No,Yes,Yes,No,No,No,,Not Registered,
Springs Clinic,28.07916,-32.4598,Rural,Clinic,Yes,Yes,No,Yes,No,No,No,Yes,Yes,Yes,No,No,Yes,No,Yes,Yes,No,No,No,,Registered,
Tafalofefe Gateway Clinic,28.47317,-32.4292,Rural,Clinic,Yes,Yes,No,No,No,No,No,Yes,Yes,Yes,No,No,Yes,No,Yes,Yes,No,No,No,,Not Registered,
Tafalofefe Mobile 1,28.51829,-32.4102,Rural,Mobile Service,Yes,Yes,No,No,No,No,No,Yes,Yes,Yes,No,No,Yes,No,Yes,No,No,No,No,,Not Registered,
Tanga Clinic,28.18506,-32.2529,Rural,Clinic,Yes,Yes,No,No,No,No,No,Yes,Yes,Yes,No,No,Yes,No,Yes,Yes,No,No,No,,Not Registered,
Tutura Clinic,28.23459,-32.3796,Rural,Clinic,Yes,Yes,No,No,No,No,No,Yes,Yes,Yes,No,No,Yes,No,Yes,Yes,No,No,No,,Registered,
Tyali Clinic,28.32852,-32.5754,Rural,Clinic,Yes,Yes,Yes,No,No,No,No,Yes,Yes,Yes,No,No,Yes,No,Yes,Yes,No,No,No,,Not Registered,
Zazulwana Clinic,28.16056,-32.2946,Rural,Clinic,Yes,Yes,No,No,No,No,No,Yes,Yes,Yes,No,No,Yes,No,Yes,Yes,No,No,No,,Not Registered,
Bhele Clinic,27.18268,-33.2026,Rural,Clinic,Yes,Yes,No,No,No,No,No,Yes,Yes,Yes,Yes,No,Yes,No,Yes,Yes,No,No,No,,Not Registered,
Gwabeni Clinic,26.96185,-33.0961,Rural,Clinic,Yes,Yes,No,No,No,No,No,Yes,Yes,Yes,Yes,No,Yes,No,Yes,Yes,No,No,No,,Not Registered,
Hamburg Clinic,27.4733,-33.2905,Peri-Urban,Clinic,Yes,Yes,No,Yes,No,No,No,Yes,Yes,Yes,Yes,No,Yes,No,Yes,Yes,No,No,No,,Not Registered,
Horton Clinic,27.02162,-33.1127,Rural,Clinic,Yes,Yes,No,Yes,No,No,No,Yes,Yes,Yes,Yes,No,Yes,No,Yes,Yes,No,No,No,,Registered,
Jaji Clinic,27.11316,-33.3514,Rural,Clinic,Yes,Yes,No,Yes,No,No,No,Yes,Yes,Yes,Yes,No,Yes,No,Yes,Yes,No,No,No,,Not Registered,
Jama Clinic,27.09369,-33.3769,Rural,Clinic,Yes,Yes,No,No,No,No,No,Yes,Yes,Yes,Yes,No,Yes,No,Yes,Yes,No,No,No,,Registered,
Matomela Clinic,27.11408,-33.2758,Rural,Clinic,Yes,Yes,No,No,No,No,No,Yes,Yes,Yes,Yes,No,Yes,No,Yes,Yes,No,No,No,,Not Registered,
Mtombe Clinic,27.33463,-33.0545,Rural,Clinic,Yes,Yes,No,No,No,No,No,Yes,Yes,Yes,Yes,No,Yes,No,Yes,Yes,No,No,No,,Not Registered,
Mtyholo Clinic,27.35656,-32.9919,Rural,Clinic,Yes,Yes,No,No,No,No,No,Yes,Yes,Yes,Yes,No,Yes,No,Yes,Yes,No,No,No,,Registered,
Ndwayana Clinic,26.872317,-33.1604,Rural,Clinic,Yes,Yes,No,No,No,No,No,Yes,Yes,Yes,Yes,No,Yes,No,Yes,Yes,No,No,No,,Registered,
Ngqwele Clinic,27.217463,-32.9049,Rural,Clinic,Yes,Yes,No,No,No,No,No,Yes,Yes,Yes,Yes,No,Yes,No,Yes,Yes,No,No,No,,Registered,
Nier Clinic,27.24207,-33.3579,Peri-Urban,Clinic,Yes,Yes,No,No,No,No,No,Yes,Yes,Yes,Yes,No,Yes,No,Yes,Yes,No,No,No,,Not Registered,
Nompumelelo Gateway Clinic,27.13042,-33.2069,Urban,Clinic,Yes,Yes,No,Yes,No,No,No,Yes,Yes,Yes,No,No,Yes,No,Yes,Yes,No,No,No,,Not Registered,
Norah Clinic,27.30872,-33.2278,Rural,Clinic,Yes,Yes,No,Yes,No,No,No,Yes,Yes,Yes,Yes,No,Yes,No,Yes,Yes,No,No,No,,Not Registered,
Peddie Extension Clinic,27.1041,-33.1998,Urban,Clinic,Yes,Yes,No,No,No,No,No,Yes,Yes,Yes,Yes,No,Yes,No,Yes,Yes,No,No,No,,Registered,
Peddie Mobile 1,27.13203,-33.2092,Rural,Mobile Service,Yes,Yes,No,No,No,No,No,Yes,No,No,No,No,Yes,No,Yes,No,No,No,No,,Not Registered,
Peddie Mobile 2,27.13236,-33.2092,Rural,Mobile Service,Yes,Yes,No,No,No,No,No,Yes,No,No,No,No,Yes,No,Yes,No,No,No,No,,Not Registered,
Peddie Mobile 3,27.13236,-33.2092,Rural,Mobile Service,Yes,Yes,No,No,No,No,No,Yes,No,No,No,No,Yes,No,Yes,No,No,No,No,,Not Registered,
Pikholi Clinic,26.96416,-33.1881,Rural,Clinic,Yes,Yes,No,Yes,No,No,No,Yes,Yes,Yes,Yes,No,Yes,No,Yes,Yes,No,No,No,,Not Registered,
Punzana Clinic,27.3669,-33.049,Rural,Clinic,Yes,Yes,No,No,No,No,No,Yes,Yes,Yes,Yes,No,Yes,No,Yes,Yes,No,No,No,,Registered,
Qeto Clinic,27.098,-33.326,Rural,Clinic,Yes,Yes,No,Yes,No,No,No,Yes,Yes,Yes,Yes,No,Yes,No,Yes,Yes,No,No,No,,Registered,
Robert Mbelekana Clinic,26.91626,-33.1659,Rural,Clinic,Yes,Yes,No,No,No,No,No,Yes,Yes,Yes,Yes,No,Yes,No,Yes,Yes,No,No,No,,Not Registered,
Nontyatyambo CHC,27.75458,-32.9472,Urban,Community Health Centre,Yes,Yes,Yes,Yes,No,No,No,Yes,Yes,Yes,Yes,No,Yes,No,Yes,Yes,No,No,No,,Registered,
Tyata Clinic,27.357294,-33.0742,Rural,Clinic,Yes,Yes,No,Yes,No,No,No,Yes,Yes,Yes,Yes,No,Yes,No,Yes,Yes,No,Yes,Yes,,Registered,
Wesley Clinic,27.33689,-33.3226,Peri-Urban,Clinic,Yes,Yes,No,Yes,No,No,No,Yes,Yes,Yes,Yes,No,Yes,No,Yes,Yes,No,No,No,,Registered,
Adelaide Gateway Clinic,26.29404,-32.6999,Urban,Clinic,Yes,Yes,No,No,No,No,No,Yes,Yes,Yes,Yes,No,Yes,No,Yes,Yes,No,No,No,,Registered,
Adelaide Mobile 1,26.2963,-32.7081,Rural,Mobile Service,No,Yes,No,No,No,No,No,No,No,No,No,No,Yes,No,No,No,No,No,No,,Not Registered,
Amathole Basin Clinic,26.9931,-32.6958,Rural,Clinic,Yes,Yes,No,Yes,No,No,No,Yes,Yes,Yes,Yes,No,Yes,No,Yes,Yes,No,No,No,,Registered,
Assina Mandla Clinic,26.7941,-32.7504,Rural,Clinic,Yes,Yes,No,No,No,No,No,Yes,Yes,Yes,Yes,No,Yes,No,Yes,Yes,No,No,No,,Registered,
Bedford Clinic,26.088811,-32.6793,Urban,Clinic,Yes,Yes,No,Yes,No,No,No,Yes,Yes,Yes,No,No,Yes,No,Yes,Yes,No,No,No,,Registered,
Bedford Mobile 1 (Nkonkobe),26.0883,-32.6829,Rural,Mobile Service,No,Yes,No,No,No,No,No,No,No,No,No,No,Yes,No,No,No,No,No,No,,Not Registered,
Bezuidenhoutville Clinic,26.29813,-32.688,Urban,Clinic,Yes,Yes,No,Yes,No,No,No,Yes,Yes,Yes,Yes,No,Yes,No,Yes,Yes,No,No,No,,Registered,
CC Lloyd Clinic,26.63361,-32.775,Urban,Clinic,No,No,No,No,No,No,Yes,Yes,No,No,No,No,Yes,No,Yes,No,No,No,No,,Not Registered,
Debe Nek Clinic,27.13793,-32.8458,Rural,Clinic,Yes,Yes,No,No,No,No,No,Yes,Yes,Yes,Yes,No,Yes,No,Yes,Yes,No,No,No,,Registered,
Fort Beaufort Gateway Clinic,26.6348,-32.7816,Urban,Clinic,Yes,Yes,No,Yes,No,No,No,Yes,Yes,Yes,No,No,Yes,No,Yes,Yes,No,No,No,,Registered,
Fort Beaufort Hospital,26.633571,-32.7802,Urban,District Hospital,Yes,Yes,No,Yes,Yes,No,Yes,Yes,No,No,Yes,No,Yes,No,Yes,Yes,No,No,No,,Not Registered,
Fort Beaufort Mobile 1,26.63795,-32.7723,Rural,Mobile Service,Yes,Yes,No,No,No,No,No,Yes,No,Yes,Yes,No,Yes,No,Yes,No,No,No,No,,Not Registered,
Gilton Clinic,26.94244,-32.6618,Rural,Clinic,Yes,Yes,No,Yes,No,No,No,Yes,Yes,Yes,Yes,No,Yes,No,Yes,Yes,No,No,No,,Registered,
Gxwederha Clinic,26.78648,-32.8416,Rural,Clinic,Yes,Yes,Yes,No,No,No,No,Yes,Yes,Yes,Yes,No,Yes,No,Yes,Yes,No,No,No,,Registered,
Healdtown Clinic,26.70145,-32.7315,Rural,Clinic,Yes,Yes,No,Yes,No,No,No,Yes,Yes,Yes,Yes,No,Yes,No,Yes,Yes,No,No,No,,Registered,
Hillside Clinic (Nkonkobe),26.63978,-32.7522,Urban,Clinic,Yes,Yes,No,Yes,No,No,No,Yes,Yes,Yes,No,No,Yes,No,Yes,Yes,No,No,No,,Registered,
Kolomana Clinic,26.78879,-32.4255,Peri-Urban,Clinic,Yes,Yes,No,No,No,No,No,Yes,Yes,Yes,No,No,Yes,No,Yes,Yes,No,No,No,,Registered,
Lower Regu Clinic,26.95249,-32.8181,Rural,Clinic,Yes,Yes,No,No,No,No,No,Yes,Yes,Yes,Yes,No,Yes,No,Yes,Yes,No,No,No,,Registered,
Lulama Kama Clinic,26.65496,-32.7686,Urban,Clinic,Yes,Yes,No,Yes,No,No,No,Yes,Yes,Yes,No,No,Yes,No,Yes,Yes,No,No,No,,Registered,
Melani Clinic,26.87394,-32.7254,Peri-Urban,Clinic,Yes,Yes,No,No,No,No,No,Yes,Yes,Yes,Yes,No,Yes,No,Yes,Yes,No,No,No,,Registered,
Mgwalana Clinic,26.96204,-32.7551,Rural,Clinic,Yes,Yes,No,No,No,No,No,Yes,Yes,Yes,Yes,No,Yes,No,Yes,Yes,No,No,No,,Registered,
Middledrift CHC,26.98832,-32.8135,Rural,Community Health Centre,Yes,Yes,No,Yes,No,No,No,Yes,Yes,Yes,Yes,No,Yes,No,Yes,Yes,No,No,No,,Registered,
Msobomvu Clinic,26.85278,-32.7005,Peri-Urban,Clinic,Yes,Yes,No,Yes,No,No,No,Yes,Yes,Yes,Yes,No,Yes,No,Yes,Yes,No,No,No,,Registered,
Mxhelo Clinic,26.73477,-32.7946,Urban,Clinic,Yes,Yes,No,Yes,No,No,No,Yes,Yes,Yes,Yes,No,Yes,No,Yes,Yes,No,No,No,,Registered,
Mzamomhle Clinic (Bedford),26.0966,-32.6903,Urban,Clinic,Yes,Yes,No,Yes,No,No,No,Yes,Yes,Yes,Yes,No,Yes,No,Yes,Yes,No,No,No,,Registered,
Newtown Clinic,26.61334,-32.774,Peri-Urban,Clinic,Yes,Yes,Yes,Yes,No,No,No,Yes,Yes,Yes,Yes,No,Yes,No,Yes,Yes,No,No,No,,Registered,
Njwaxa Clinic,26.9056,-32.8728,Rural,Clinic,Yes,Yes,No,No,No,No,No,Yes,Yes,Yes,Yes,No,Yes,No,Yes,Yes,No,No,No,,Registered,
Nomakhwezi Makhenyane Clinic,26.31339,-32.6929,Urban,Clinic,Yes,Yes,No,Yes,No,No,No,Yes,Yes,Yes,Yes,No,Yes,No,Yes,Yes,No,No,No,,Registered,
Perksdale Clinic,27.07595,-32.8925,Rural,Clinic,Yes,Yes,No,No,No,No,No,Yes,Yes,Yes,Yes,No,Yes,No,Yes,Yes,No,No,No,,Registered,
Qibira Clinic,27.03459,-32.9455,Rural,Clinic,Yes,Yes,No,No,No,No,No,Yes,Yes,Yes,Yes,No,Yes,No,Yes,Yes,No,No,No,,Registered,
Rwarwa Clinic,26.90983,-32.745,Rural,Clinic,Yes,Yes,No,Yes,No,No,No,Yes,Yes,Yes,Yes,No,Yes,No,Yes,Yes,No,No,No,,Registered,
Seymour Clinic,26.7662,-32.5507,Peri-Urban,Clinic,Yes,Yes,No,Yes,No,No,No,Yes,Yes,Yes,Yes,No,Yes,No,Yes,Yes,No,No,No,,Registered,
Sheshegu Clinic,26.785,-32.9013,Rural,Clinic,Yes,Yes,No,Yes,No,No,No,Yes,Yes,Yes,Yes,No,Yes,No,Yes,Yes,No,No,No,,Registered,
Thozamile Madakana Clinic,26.64749,-32.7737,Urban,Clinic,Yes,Yes,No,No,No,No,No,Yes,Yes,Yes,No,No,Yes,No,Yes,Yes,No,No,No,,Registered,
Tower Hospital,26.63678,-32.7702,Urban,Specialised Psychiatric Hospital,No,Yes,No,No,No,No,No,Yes,No,Yes,No,No,Yes,No,Yes,Yes,No,No,No,,Not Registered,
Upper Ncera Clinic,26.92783,-32.7317,Rural,Clinic,Yes,Yes,No,Yes,No,No,No,Yes,Yes,Yes,Yes,No,Yes,No,Yes,Yes,No,No,No,,Registered,
Victoria Gateway Clinic,26.84678,-32.7752,Urban,Clinic,Yes,Yes,No,No,No,No,No,Yes,Yes,Yes,No,No,Yes,No,Yes,Yes,No,No,No,,Registered,
War Memorial Mobile 1,26.83078,-32.7928,Rural,Mobile Service,Yes,Yes,No,No,No,No,No,Yes,No,Yes,No,No,Yes,No,No,No,No,No,No,,Not Registered,
Glen Grey Hospital,27.19939,-31.7199,Peri-Urban,District Hospital,Yes,Yes,Yes,Yes,Yes,No,Yes,Yes,Yes,Yes,Yes,No,Yes,No,Yes,Yes,No,No,No,,Registered,
Washington Clinic,27.01054,-32.9922,Rural,Clinic,Yes,Yes,No,No,No,No,No,Yes,Yes,Yes,Yes,No,Yes,No,Yes,Yes,No,Yes,No,,Registered,
Winterberg TB Hospital,26.656323,-32.7793,Urban,Specialised TB Hospital,No,Yes,No,No,No,No,No,No,No,No,No,No,Yes,No,Yes,Yes,No,No,No,,Not Registered,
Zigodlo Clinic,27.06527,-32.9835,Rural,Clinic,Yes,Yes,Yes,Yes,No,No,No,Yes,Yes,Yes,Yes,No,Yes,No,Yes,Yes,No,No,No,,Registered,
Zihlahleni Clinic,27.201076,-32.8623,Rural,Clinic,Yes,Yes,No,Yes,No,No,No,Yes,Yes,Yes,Yes,No,Yes,No,Yes,Yes,No,No,No,,Registered,
Alphendale Clinic,27.84133,-33.0135,Urban,Clinic,Yes,Yes,No,Yes,No,No,No,Yes,Yes,Yes,No,No,Yes,No,Yes,Yes,No,No,No,,Registered,
Amahleke Clinic,27.22825,-32.8337,Urban,Clinic,Yes,Yes,No,No,No,No,No,Yes,Yes,Yes,No,No,Yes,Yes,Yes,Yes,No,No,No,,Registered,
Amalinda Mobile 1,27.8978,-33.012,Rural,Mobile Service,No,No,No,No,No,No,No,No,No,No,No,No,Yes,No,No,No,No,No,No,,Not Registered,
Aspiranza Clinic,27.84991,-33.0191,Urban,Clinic,Yes,Yes,No,Yes,No,No,No,Yes,Yes,Yes,No,No,Yes,No,Yes,Yes,No,No,No,,Registered,
Beacon Bay Clinic,27.93835,-32.9679,Urban,Clinic,Yes,Yes,No,Yes,No,No,No,Yes,Yes,Yes,No,No,Yes,No,Yes,Yes,No,No,No,,Registered,
Berlin Clinic,27.577761,-32.8839,Urban,Clinic,Yes,Yes,No,Yes,No,No,No,Yes,Yes,Yes,No,No,Yes,No,Yes,Yes,No,No,No,,Registered,
Bhisho Gateway Clinic,27.4551,-32.8277,Urban,Clinic,Yes,Yes,No,Yes,No,No,No,Yes,Yes,Yes,No,No,Yes,No,Yes,Yes,No,No,No,,Registered,
Braelyn Clinic,27.8793,-32.9999,Urban,Clinic,Yes,Yes,No,No,No,No,No,Yes,Yes,Yes,No,No,Yes,No,Yes,Yes,No,No,No,,Registered,
Braelyn Extension Clinic,27.86104,-33.004,Urban,Clinic,Yes,Yes,No,Yes,No,No,No,Yes,Yes,Yes,No,No,Yes,No,Yes,Yes,No,No,No,,Registered,
Breidbach Clinic,27.44361,-32.8881,Urban,Clinic,Yes,Yes,No,Yes,No,No,No,Yes,Yes,Yes,No,No,Yes,No,Yes,Yes,No,No,No,,Registered,
Bulembu Clinic,27.26767,-32.8734,Rural,Clinic,Yes,Yes,No,No,No,No,No,Yes,Yes,Yes,No,No,Yes,No,Yes,Yes,No,No,No,,Registered,
Cambridge Clinic,27.88947,-32.9779,Urban,Clinic,Yes,Yes,No,No,No,No,No,Yes,Yes,Yes,No,No,Yes,No,Yes,Yes,No,No,No,,Registered,
Central Clinic (East London),27.90585,-33.0168,Urban,Clinic,Yes,Yes,Yes,Yes,No,No,No,Yes,Yes,Yes,No,No,Yes,No,Yes,Yes,No,No,No,,Registered,
Chris Hani Clinic,27.92509,-32.9546,Urban,Clinic,Yes,Yes,No,No,No,No,No,Yes,Yes,Yes,Yes,No,Yes,No,Yes,Yes,No,No,No,,Registered,
Collondale Satellite Clinic,27.8188,-33.0397,Rural,Satellite Clinic,Yes,Yes,No,Yes,No,No,No,Yes,Yes,Yes,No,No,Yes,No,Yes,No,No,No,No,,Not Registered,
Dimbaza CHC,27.21388,-32.8352,Urban,Community Health Centre,Yes,Yes,No,No,No,No,No,Yes,Yes,Yes,Yes,No,Yes,No,Yes,Yes,No,No,No,,Registered,
Drake Road Clinic,27.9292,-32.9857,Urban,Clinic,Yes,Yes,Yes,Yes,No,No,No,Yes,Yes,Yes,No,No,Yes,No,Yes,Yes,No,No,No,,Registered,
Duncan Village CHC,27.88599,-33.0078,Urban,Community Health Centre,Yes,Yes,Yes,Yes,No,No,No,Yes,Yes,Yes,Yes,No,Yes,No,Yes,Yes,No,No,No,,Registered,
East London Mobile 1,27.87604,-33.0045,Urban,Mobile Service,Yes,Yes,No,No,No,No,No,Yes,No,No,No,No,Yes,No,Yes,No,No,No,No,,Not Registered,
East London Mobile 2,27.87604,-33.0045,Urban,Mobile Service,Yes,Yes,No,No,No,No,No,Yes,No,Yes,No,No,Yes,No,Yes,No,No,No,No,,Not Registered,
East London Mobile 3,27.87604,-33.0045,Urban,Mobile Service,Yes,Yes,No,No,No,No,No,Yes,No,Yes,No,No,Yes,No,Yes,No,No,No,No,,Not Registered,
East London Mobile 4,27.87604,-33.0045,Urban,Mobile Service,No,No,No,No,No,No,No,No,No,No,No,No,Yes,No,No,No,No,No,No,,Not Registered,
East London Mobile 5,27.87604,-33.0045,Urban,Mobile Service,Yes,Yes,No,No,No,No,No,Yes,No,No,No,No,Yes,No,Yes,No,No,No,No,,Not Registered,
East London Trust Mobile C,27.89099,-32.9969,Urban,Mobile Service,No,No,No,No,No,No,No,No,No,No,No,No,Yes,No,No,No,No,No,No,,Not Registered,
Fezeka NU 3 Clinic,27.75319,-32.9319,Urban,Clinic,Yes,Yes,No,No,No,No,No,Yes,Yes,Yes,No,No,Yes,No,Yes,Yes,No,No,No,,Registered,
Fort Grey Clinic,27.80318,-33.037,Peri-Urban,Clinic,Yes,Yes,No,No,No,No,No,Yes,Yes,Yes,No,No,Yes,No,Yes,Yes,No,No,No,,Registered,
Frere Gateway Clinic,27.88982,-32.9971,Urban,Clinic,Yes,Yes,No,No,No,No,No,Yes,Yes,Yes,No,Yes,Yes,No,Yes,Yes,No,No,No,,Registered,
Ginsberg Clinic,27.38547,-32.8921,Peri-Urban,Clinic,Yes,Yes,No,Yes,No,No,No,Yes,Yes,Yes,No,No,Yes,No,Yes,Yes,No,No,No,,Registered,
Gompo A Ndende Clinic,27.87616,-33.0072,Urban,Clinic,Yes,Yes,No,Yes,No,No,No,Yes,Yes,Yes,No,No,Yes,No,Yes,Yes,No,No,No,,Registered,
Gompo B Jwayi Clinic,27.8578,-33.0167,Urban,Clinic,Yes,Yes,No,No,No,No,No,Yes,Yes,Yes,No,No,Yes,No,Yes,Yes,No,No,No,,Registered,
Gompo C Jabavu Clinic,27.86389,-33.0116,Urban,Clinic,Yes,Yes,No,No,No,No,No,Yes,Yes,Yes,No,No,Yes,No,Yes,Yes,No,No,No,,Registered,
Gonubie Clinic,28.02194,-32.9415,Urban,Clinic,Yes,Yes,No,No,No,No,No,Yes,Yes,Yes,No,No,Yes,No,Yes,Yes,No,No,No,,Registered,
Grey Gateway Clinic,27.39581,-32.8796,Urban,Clinic,Yes,Yes,No,Yes,No,No,No,Yes,Yes,Yes,No,No,Yes,No,Yes,Yes,No,No,No,,Registered,
Grey Hospital,27.39579,-32.8793,Urban,District Hospital,Yes,Yes,Yes,No,No,No,Yes,Yes,No,Yes,Yes,Yes,Yes,No,Yes,Yes,No,No,No,,Registered,
Ilita Clinic,27.533847,-32.8899,Urban,Clinic,Yes,Yes,No,Yes,No,No,No,Yes,Yes,Yes,Yes,No,Yes,No,Yes,Yes,No,No,No,,Registered,
Imidange Clinic,27.48696,-32.7796,Peri-Urban,Clinic,Yes,Yes,No,Yes,No,No,No,Yes,Yes,Yes,No,No,Yes,No,Yes,Yes,No,No,No,,Registered,
Jafta Clinic,27.31083,-32.7988,Rural,Clinic,Yes,Yes,No,Yes,No,No,No,Yes,Yes,Yes,No,No,Yes,No,Yes,Yes,No,No,No,,Registered,
John Dube Clinic,27.81635,-32.9913,Urban,Clinic,Yes,Yes,No,No,No,No,No,Yes,Yes,Yes,No,No,Yes,No,Yes,Yes,No,No,No,,Registered,
Kwelera Clinic,27.9628,-32.8234,Rural,Clinic,Yes,Yes,No,No,No,No,No,Yes,Yes,Yes,Yes,No,Yes,No,Yes,Yes,No,No,No,,Registered,
Luyolo NU 9 Clinic,27.73391,-32.9257,Urban,Clinic,Yes,Yes,No,No,No,No,No,Yes,Yes,Yes,No,No,Yes,No,Yes,Yes,No,No,No,,Registered,
Masakhane Clinic (Zwelitsha),27.43245,-32.9256,Urban,Clinic,Yes,Yes,No,No,No,No,No,Yes,Yes,Yes,No,No,Yes,No,Yes,Yes,No,No,No,,Registered,
Masele Clinic,27.33074,-32.9359,Rural,Clinic,Yes,Yes,No,No,No,No,No,Yes,Yes,Yes,Yes,No,Yes,No,Yes,Yes,No,No,No,,Registered,
Masiphile Clinic,27.789121,-32.8543,Urban,Clinic,Yes,Yes,No,No,No,No,No,Yes,Yes,Yes,No,No,Yes,No,Yes,Yes,No,No,No,,Registered,
Mdantsane Comprehensive Mobile 1,27.74422,-32.9278,Urban,Mobile Service,Yes,Yes,No,No,No,No,No,Yes,No,Yes,No,No,Yes,No,Yes,No,No,No,No,,Not Registered,
Mdingi Clinic,27.32969,-32.8237,Urban,Clinic,Yes,Yes,No,No,No,No,Yes,Yes,Yes,Yes,No,No,Yes,No,Yes,Yes,No,No,No,,Registered,
Mncotsho Clinic,27.59984,-32.9351,Peri-Urban,Clinic,Yes,Yes,No,Yes,No,No,No,Yes,Yes,Yes,No,No,Yes,No,Yes,Yes,No,No,No,,Registered,
Moore Street Clinic,27.91553,-33.0128,Urban,Clinic,Yes,Yes,No,No,No,No,No,Yes,Yes,Yes,No,No,Yes,No,Yes,Yes,No,No,No,,Registered,
Mount Coke CHC,27.44252,-32.9804,Rural,Community Health Centre,Yes,Yes,No,No,No,No,No,Yes,Yes,Yes,Yes,No,Yes,No,Yes,Yes,No,No,No,,Registered,
Mount Coke Mobile 1,27.44252,-32.9804,Rural,Mobile Service,No,Yes,No,No,No,No,No,No,No,No,No,No,Yes,No,No,No,No,No,No,,Not Registered,
Mpongo Clinic,27.52628,-33.1576,Rural,Clinic,Yes,Yes,No,No,No,No,No,Yes,Yes,No,Yes,No,Yes,No,Yes,Yes,No,No,No,,Registered,
Mxalanga Clinic,27.36593,-32.7398,Rural,Clinic,Yes,Yes,Yes,Yes,No,No,No,Yes,Yes,Yes,No,No,Yes,No,Yes,Yes,No,No,No,,Registered,
Ncera Clinic,27.59237,-33.1156,Peri-Urban,Clinic,Yes,Yes,No,Yes,No,No,No,Yes,Yes,Yes,Yes,No,Yes,No,Yes,Yes,No,No,No,,Registered,
Ndevana Clinic,27.50695,-32.9098,Urban,Clinic,Yes,Yes,No,No,No,No,No,Yes,Yes,Yes,Yes,No,Yes,No,Yes,Yes,No,No,No,,Registered,
Needs Camp Clinic,27.64703,-33.0055,Rural,Clinic,Yes,Yes,No,Yes,No,No,No,Yes,Yes,Yes,Yes,Yes,Yes,No,Yes,Yes,No,No,No,,Registered,
Newhaven Hospital,27.90592,-32.9828,Urban,Specialised Chronic Hospital,No,No,No,No,No,No,No,No,No,No,No,No,Yes,No,No,No,No,No,No,,Not Registered,
Newlands Clinic,27.74907,-32.8778,Urban,Clinic,Yes,Yes,No,Yes,No,No,No,Yes,Yes,Yes,No,No,Yes,No,Yes,Yes,No,No,No,,Registered,
Nkqubela Hospital,27.74088,-32.9328,Urban,Specialised TB Hospital,No,Yes,No,No,No,No,No,No,No,No,No,No,Yes,No,Yes,Yes,No,No,No,,Not Registered,
Nobuhle NU 8 Clinic,27.72508,-32.9411,Urban,Clinic,Yes,Yes,No,No,No,No,No,Yes,Yes,Yes,No,No,Yes,No,Yes,Yes,No,No,No,,Registered,
Frontier Hospital,26.871347,-31.8892,Urban,Regional Hospital,Yes,Yes,Yes,Yes,Yes,No,Yes,Yes,No,Yes,No,Yes,Yes,No,Yes,Yes,No,No,No,,Not Registered,
Noncampa Clinic,27.29926,-32.9074,Rural,Clinic,Yes,Yes,No,Yes,No,No,No,Yes,Yes,Yes,Yes,No,Yes,No,Yes,Yes,No,Yes,No,,Registered,
Noncampa Mobile 1,27.29926,-32.9074,Rural,Mobile Service,No,Yes,No,No,No,No,No,No,Yes,No,No,No,Yes,No,No,No,No,No,No,,Not Registered,
NU 12 Clinic,27.71785,-32.93282,Urban,Clinic,Yes,Yes,No,No,No,No,No,Yes,Yes,Yes,No,No,Yes,No,Yes,Yes,No,No,No,,Registered,
NU 13 Clinic,27.70068,-32.94142,Urban,Clinic,Yes,Yes,No,No,No,No,No,Yes,Yes,Yes,No,No,Yes,No,Yes,Yes,No,No,No,,Registered,
Hewu Hospital,26.80522,-32.1727,Peri-Urban,District Hospital,Yes,Yes,No,No,Yes,No,Yes,Yes,No,Yes,Yes,No,Yes,No,Yes,Yes,No,No,No,,Not Registered,
NU 16 Clinic,27.69318,-32.95903,Urban,Clinic,Yes,Yes,No,Yes,No,No,No,Yes,Yes,Yes,No,No,Yes,No,Yes,Yes,No,Yes,No,,Registered,
NU 17 Clinic,27.68623,-32.94896,Urban,Clinic,Yes,Yes,No,No,No,No,No,Yes,Yes,Yes,No,No,Yes,No,Yes,Yes,No,No,No,,Registered,
Openshaw Clinic,27.4473,-33.1582,Rural,Clinic,Yes,Yes,No,No,No,No,No,Yes,Yes,Yes,Yes,No,Yes,No,Yes,Yes,No,No,No,,Registered,
Pakamisa Clinic,27.45253,-32.9358,Urban,Clinic,Yes,Yes,No,No,No,No,No,Yes,Yes,Yes,Yes,No,Yes,No,Yes,Yes,No,No,No,,Registered,
Peelton Clinic,27.49782,-32.7727,Peri-Urban,Clinic,Yes,Yes,No,No,No,No,No,Yes,Yes,Yes,No,No,Yes,No,Yes,Yes,No,No,No,,Registered,
Pefferville Clinic,27.88081,-33.0119,Urban,Clinic,Yes,Yes,No,No,No,No,No,Yes,Yes,Yes,No,No,Yes,No,Yes,Yes,No,No,No,,Registered,
Petros Jobane Clinic,27.88499,-32.9676,Urban,Clinic,Yes,Yes,No,No,No,No,No,Yes,Yes,Yes,Yes,No,Yes,No,Yes,Yes,No,No,No,,Registered,
Philani NU 1 Clinic,27.77033,-32.9384,Urban,Clinic,Yes,Yes,No,No,No,No,No,Yes,Yes,Yes,No,No,Yes,No,Yes,Yes,No,No,No,,Registered,
Pirie Clinic,27.24578,-32.7924,Peri-Urban,Clinic,Yes,Yes,No,Yes,No,No,No,Yes,Yes,Yes,No,No,Yes,No,Yes,Yes,No,No,No,,Registered,
Potsdam Clinic,27.64419,-32.9811,Urban,Clinic,Yes,Yes,Yes,Yes,No,No,No,Yes,Yes,Yes,No,Yes,Yes,No,Yes,Yes,No,No,No,,Registered,
Qurhu Clinic,27.54388,-33.0025,Rural,Clinic,Yes,Yes,No,Yes,No,No,No,Yes,Yes,Yes,No,No,Yes,No,Yes,Yes,No,No,No,,Registered,
Reeston Mobile 1,27.8978,-33.012,Rural,Mobile Service,Yes,Yes,No,No,No,No,No,Yes,No,Yes,No,No,Yes,No,Yes,No,No,No,No,,Not Registered,
Shornville Clinic,27.3988,-32.8974,Urban,Clinic,Yes,Yes,No,No,No,No,No,Yes,Yes,Yes,No,No,Yes,No,Yes,Yes,No,No,No,,Registered,
Sinebhongo Clinic,27.85745,-32.9818,Urban,Clinic,Yes,Yes,Yes,No,No,No,No,Yes,Yes,Yes,Yes,No,Yes,No,Yes,Yes,No,No,No,,Registered,
St Thomas Clinic,27.37067,-32.6989,Rural,Clinic,No,Yes,No,No,No,No,No,No,No,No,No,No,Yes,No,No,No,No,No,No,,Not Registered,
Sweetwaters Clinic,27.41565,-32.9015,Urban,Clinic,Yes,Yes,No,Yes,No,No,No,Yes,Yes,Yes,No,No,Yes,No,Yes,Yes,No,No,No,,Registered,
Tamara Clinic,27.23607,-33.0001,Rural,Clinic,Yes,Yes,No,No,No,No,No,Yes,Yes,Yes,No,No,Yes,No,Yes,Yes,No,No,No,,Registered,
Tembisa NU 7 Clinic,27.72368,-32.953,Urban,Clinic,Yes,Yes,No,No,No,No,No,Yes,Yes,Yes,No,No,Yes,No,Yes,Yes,No,No,No,,Registered,
Thembalethu Clinic (Buffalo City),27.789093,-32.8872,Urban,Clinic,Yes,Yes,No,No,No,No,No,Yes,Yes,Yes,No,No,Yes,No,Yes,Yes,No,No,No,,Registered,
Tshabo Clinic,27.54748,-32.9273,Rural,Clinic,Yes,Yes,Yes,No,No,No,No,Yes,Yes,Yes,No,No,Yes,Yes,Yes,Yes,No,No,No,,Registered,
Tshatshu Clinic,27.45184,-32.9168,Urban,Clinic,Yes,Yes,No,No,No,No,No,Yes,Yes,Yes,No,No,Yes,No,Yes,Yes,No,No,No,,Registered,
Twecu Clinic,27.25407,-33.0675,Rural,Clinic,Yes,Yes,No,No,No,No,No,Yes,Yes,Yes,Yes,No,Yes,No,Yes,Yes,No,No,No,,Registered,
Tyamzashe FP Clinic,27.44079,-32.8464,Peri-Urban,Clinic,No,Yes,No,No,No,No,No,No,No,No,No,No,Yes,No,No,No,No,No,No,,Not Registered,
Tyutyu Clinic,27.45701,-32.8424,Peri-Urban,Clinic,Yes,Yes,No,No,No,No,No,Yes,Yes,Yes,No,No,Yes,No,Yes,Yes,No,No,No,,Registered,
Tyutyu Village Clinic,27.38691,-32.8334,Rural,Clinic,Yes,Yes,Yes,Yes,No,No,No,Yes,Yes,Yes,No,No,Yes,No,Yes,Yes,No,No,No,,Registered,
Welcomewood Clinic,27.59793,-33.0091,Rural,Clinic,Yes,Yes,No,No,No,No,No,Yes,Yes,Yes,No,No,Yes,Yes,Yes,Yes,No,No,No,,Registered,
Westbank Mobile 1,27.8978,-33.012,Rural,Mobile Service,Yes,Yes,No,No,No,No,No,Yes,No,Yes,No,No,Yes,No,Yes,No,No,No,No,,Not Registered,
Westbank Nursery School Satellite Clinic,27.91022,-33.0318,Urban,Satellite Clinic,Yes,Yes,No,No,No,No,No,Yes,Yes,Yes,No,No,Yes,No,Yes,No,No,No,No,,Not Registered,
Zanempilo Clinic (East London),27.99148,-32.9545,Urban,Clinic,Yes,Yes,No,No,No,No,No,Yes,Yes,Yes,Yes,No,Yes,No,Yes,Yes,No,No,No,,Registered,
Zanempilo Clinic (Zwelitsha),27.41786,-32.801,Peri-Urban,Clinic,Yes,Yes,No,Yes,No,No,No,Yes,Yes,Yes,No,No,Yes,No,Yes,Yes,No,No,No,,Registered,
Zikhova Clinic,27.47831,-33.2292,Rural,Clinic,Yes,Yes,No,No,No,No,No,Yes,Yes,Yes,Yes,No,Yes,No,Yes,Yes,No,No,No,,Registered,
Zingisa NU 5 Clinic,27.73869,-32.9565,Urban,Clinic,Yes,Yes,No,No,No,No,No,Yes,Yes,Yes,No,No,Yes,No,Yes,Yes,No,No,No,,Registered,
Zwelitsha Zone 5 Clinic,27.42365,-32.9241,Urban,Clinic,Yes,Yes,No,No,No,No,No,Yes,Yes,Yes,No,No,Yes,No,Yes,Yes,No,No,No,,Registered,
Agnes Rest Clinic,27.031329,-31.6974,Rural,Clinic,Yes,Yes,No,Yes,No,No,No,Yes,Yes,Yes,No,No,Yes,No,Yes,Yes,No,No,No,,Registered,
Bengu Clinic (Emalahleni),27.335408,-31.7927,Rural,Clinic,Yes,Yes,No,Yes,No,No,No,Yes,Yes,Yes,No,No,Yes,No,Yes,Yes,No,No,No,,Registered,
Boomplaas Clinic,27.17074,-31.5129,Rural,Clinic,Yes,Yes,No,Yes,No,No,No,Yes,Yes,Yes,No,No,Yes,No,Yes,Yes,No,No,No,,Registered,
Dordrecht Clinic,27.04622,-31.3748,Peri-Urban,Clinic,Yes,Yes,No,No,No,No,No,Yes,Yes,Yes,No,No,Yes,No,Yes,Yes,No,No,No,,Registered,
Dordrecht Hospital,27.045615,-31.3913,Peri-Urban,District Hospital,No,Yes,No,Yes,No,No,Yes,Yes,Yes,Yes,Yes,No,Yes,No,Yes,Yes,No,No,No,,Not Registered,
Guba Clinic,27.2793,-31.5354,Peri-Urban,Clinic,Yes,Yes,No,No,No,No,No,Yes,Yes,Yes,No,No,Yes,No,Yes,Yes,No,No,No,,Registered,
Hlala Uphilile Clinic,27.03673,-31.381,Rural,Clinic,Yes,Yes,No,No,No,No,No,Yes,Yes,Yes,No,No,Yes,No,Yes,Yes,No,No,No,,Registered,
Indwe Hospital,27.34042,-31.4683,Peri-Urban,District Hospital,No,Yes,No,No,No,No,Yes,Yes,No,Yes,No,No,Yes,No,Yes,Yes,No,No,No,,Not Registered,
Lady Frere Mobile 2,27.19939,-31.7199,Rural,Mobile Service,Yes,Yes,No,No,No,No,No,Yes,No,Yes,No,No,Yes,No,No,No,No,No,No,,Not Registered,
Lady Frere Mobile 3,27.19939,-31.7199,Rural,Mobile Service,Yes,Yes,No,No,No,No,No,Yes,No,Yes,No,No,Yes,No,No,No,No,No,No,,Not Registered,
Lanti Clinic,27.35901,-31.867,Rural,Clinic,Yes,Yes,No,No,No,No,No,Yes,Yes,Yes,No,No,Yes,No,Yes,Yes,No,No,No,,Registered,
Machubeni Clinic,27.18929,-31.5598,Rural,Clinic,Yes,Yes,Yes,Yes,No,No,No,Yes,Yes,Yes,No,No,Yes,No,Yes,Yes,No,No,No,,Registered,
Maqashu Clinic,27.33497,-31.7437,Rural,Clinic,Yes,Yes,No,No,No,No,No,Yes,Yes,Yes,No,No,Yes,No,Yes,Yes,No,No,No,,Registered,
Matyantya Clinic,27.07183,-31.7855,Rural,Clinic,Yes,Yes,No,Yes,No,No,No,Yes,Yes,Yes,No,No,Yes,No,Yes,Yes,No,No,No,,Registered,
Mhlanga Clinic,27.16111,-31.4638,Peri-Urban,Clinic,Yes,Yes,No,No,No,No,No,Yes,Yes,Yes,No,No,Yes,No,Yes,Yes,No,No,No,,Registered,
Mkapusi Clinic,27.10714,-31.5951,Rural,Clinic,Yes,Yes,No,Yes,No,No,No,Yes,Yes,Yes,No,No,Yes,No,Yes,Yes,No,No,No,,Registered,
Mount Arthur Clinic,27.15359,-31.6864,Rural,Clinic,Yes,Yes,No,Yes,No,No,No,Yes,Yes,Yes,No,No,Yes,No,Yes,Yes,No,No,No,,Registered,
Ndonga Clinic,27.389111,-31.6249,Rural,Clinic,Yes,Yes,No,No,No,No,No,Yes,Yes,Yes,No,No,Yes,No,Yes,Yes,No,No,No,,Registered,
Ngonyama CHC,26.93369,-31.6815,Rural,Community Health Centre,Yes,Yes,No,Yes,No,No,No,Yes,Yes,Yes,Yes,No,Yes,No,Yes,Yes,No,No,No,,Registered,
Nompumelelo Clinic,27.34702,-31.4716,Urban,Clinic,Yes,Yes,Yes,Yes,No,No,No,Yes,Yes,Yes,No,No,Yes,No,Yes,Yes,No,No,No,,Registered,
Cofimvaba Hospital,27.58348,-32.0119,Urban,District Hospital,No,Yes,No,No,Yes,No,Yes,Yes,No,Yes,Yes,No,Yes,No,Yes,Yes,No,No,No,,Not Registered,
Philani Clinic (Emalahleni),27.19939,-31.7199,Peri-Urban,Clinic,Yes,Yes,No,Yes,No,No,No,Yes,Yes,Yes,No,No,Yes,No,Yes,Yes,No,Yes,Yes,,Registered,
Qoqodala Clinic,26.95022,-31.7159,Rural,Clinic,Yes,Yes,No,No,No,No,No,Yes,Yes,Yes,No,No,Yes,No,Yes,Yes,No,No,No,,Registered,
Queen Nonesi Clinic,27.01094,-31.821,Rural,Clinic,Yes,Yes,No,Yes,No,No,No,Yes,Yes,Yes,No,No,Yes,No,Yes,Yes,No,No,No,,Registered,
Rodana Clinic,27.2014,-31.9146,Rural,Clinic,Yes,Yes,No,Yes,No,No,No,Yes,Yes,Yes,No,No,Yes,No,Yes,Yes,No,No,No,,Registered,
Rwantsana Clinic,27.313392,-31.8449,Rural,Clinic,Yes,Yes,No,No,No,No,No,Yes,Yes,Yes,No,No,Yes,No,Yes,Yes,No,No,No,,Registered,
Swartwater Clinic,26.83138,-31.6665,Rural,Clinic,Yes,Yes,No,Yes,No,No,No,Yes,Yes,Yes,No,No,Yes,No,Yes,Yes,No,No,No,,Registered,
Tsembeyi Clinic,27.01401,-31.5858,Rural,Clinic,Yes,Yes,No,Yes,No,No,No,Yes,Yes,Yes,No,No,Yes,No,Yes,Yes,No,No,No,,Registered,
Xonxa Clinic,27.08949,-31.8489,Rural,Clinic,Yes,Yes,Yes,Yes,No,No,No,Yes,Yes,Yes,No,No,Yes,No,Yes,Yes,No,No,No,,Registered,
All Saints Gateway Clinic,28.0504,-31.6619,Urban,Clinic,Yes,Yes,Yes,No,No,No,No,Yes,Yes,Yes,No,No,Yes,No,Yes,Yes,No,No,No,,Registered,
All Saints Hospital,28.05041,-31.6619,Peri-Urban,District Hospital,Yes,Yes,Yes,Yes,Yes,No,Yes,Yes,No,Yes,Yes,Yes,Yes,No,Yes,Yes,No,No,No,,Not Registered,
Bokleni Clinic,28.19492,-31.5946,Rural,Clinic,Yes,Yes,No,No,No,No,No,Yes,Yes,Yes,No,No,Yes,No,Yes,Yes,No,No,No,,Registered,
Clarkebury Clinic,28.28793,-31.7919,Rural,Clinic,Yes,Yes,No,No,No,No,No,Yes,Yes,Yes,No,No,Yes,No,Yes,Yes,No,No,No,,Registered,
Cwecweni Clinic,28.05575,-31.9367,Rural,Clinic,Yes,Yes,No,No,No,No,No,Yes,Yes,Yes,No,No,Yes,No,Yes,Yes,No,No,No,,Registered,
Elucwecwe Clinic,27.8688,-31.7338,Rural,Clinic,Yes,Yes,No,No,No,No,No,Yes,Yes,Yes,No,No,Yes,No,Yes,Yes,No,No,No,,Registered,
Eluhewini Clinic,28.12643,-31.7058,Rural,Clinic,Yes,Yes,No,No,No,No,No,Yes,Yes,Yes,No,No,Yes,No,Yes,Yes,No,No,No,,Registered,
Gqaga Clinic,28.2108,-31.5541,Rural,Clinic,Yes,Yes,No,No,No,No,No,Yes,Yes,Yes,No,No,Yes,No,Yes,Yes,No,No,No,,Registered,
Gubenxa Clinic,27.82102,-31.7174,Rural,Clinic,Yes,Yes,No,Yes,No,No,No,Yes,Yes,Yes,Yes,No,Yes,No,Yes,Yes,No,No,No,,Registered,
Lahlangubo Clinic (Ngcobo),27.8667,-31.6614,Rural,Clinic,Yes,Yes,No,Yes,No,No,No,Yes,Yes,Yes,No,No,Yes,No,Yes,Yes,No,No,No,,Registered,
Manzana Clinic,28.00876,-31.7374,Rural,Clinic,Yes,Yes,No,Yes,No,No,No,Yes,Yes,Yes,No,No,Yes,No,Yes,Yes,No,No,No,,Registered,
Mdanjelwa Clinic,28.21853,-31.8007,Rural,Clinic,Yes,Yes,No,Yes,No,No,No,Yes,Yes,Yes,No,No,Yes,No,Yes,Yes,No,No,No,,Registered,
Mgudu Clinic,28.34694,-31.4783,Rural,Clinic,Yes,Yes,No,No,No,No,No,Yes,Yes,Yes,No,No,Yes,No,Yes,Yes,No,No,No,,Registered,
Mhlopekazi Clinic,28.26916,-31.7368,Rural,Clinic,Yes,Yes,No,Yes,No,No,No,Yes,Yes,Yes,No,No,Yes,No,Yes,Yes,No,No,No,,Registered,
Mjanyana Clinic,28.10611,-31.8323,Rural,Clinic,Yes,Yes,No,Yes,No,No,No,Yes,Yes,Yes,No,No,Yes,No,Yes,Yes,No,No,No,,Registered,
Mjanyana Hospital,28.1038,-31.836,Rural,District Hospital,No,Yes,No,No,No,No,No,Yes,No,Yes,No,No,Yes,No,Yes,Yes,No,No,No,,Not Registered,
Mjanyana Mobile 1,28.1038,-31.836,Rural,Mobile Service,Yes,Yes,No,No,No,No,No,Yes,No,Yes,No,No,Yes,No,Yes,No,No,No,No,,Not Registered,
Mnyolo Clinic,28.28827,-31.4945,Rural,Clinic,Yes,Yes,No,No,No,No,No,Yes,Yes,Yes,No,No,Yes,No,Yes,Yes,No,No,No,,Registered,
Ngcobo CHC,28.00549,-31.6785,Peri-Urban,Community Health Centre,Yes,Yes,No,Yes,No,No,No,Yes,Yes,Yes,No,No,Yes,No,Yes,Yes,No,No,No,,Registered,
Ngcobo Community Health Services Mobile 2,28.00549,-31.6785,Peri-Urban,Mobile Service,Yes,Yes,No,No,No,No,No,Yes,Yes,Yes,No,No,Yes,No,Yes,No,No,No,No,,Not Registered,
Nkwenkwana Clinic,28.20929,-31.7716,Rural,Clinic,Yes,Yes,No,Yes,No,No,No,Yes,Yes,Yes,Yes,No,Yes,No,Yes,Yes,No,No,No,,Registered,
Ntsimba Clinic,28.21192,-31.8592,Rural,Clinic,Yes,Yes,No,No,No,No,No,Yes,Yes,Yes,No,No,Yes,No,Yes,Yes,No,No,No,,Registered,
Qebe Clinic,28.0356,-31.5122,Rural,Clinic,Yes,Yes,No,Yes,No,No,Yes,Yes,Yes,Yes,No,No,Yes,No,Yes,Yes,No,No,No,,Registered,
Qumanco Clinic,27.92353,-31.7859,Rural,Clinic,Yes,Yes,No,Yes,No,No,No,Yes,Yes,Yes,No,No,Yes,No,Yes,Yes,No,No,No,,Registered,
Sinqumeni Clinic,28.263015,-31.4181,Rural,Clinic,Yes,Yes,No,No,No,No,No,Yes,Yes,Yes,No,No,Yes,No,Yes,Yes,No,No,No,,Not Registered,
Tora Clinic,28.15048,-31.8843,Rural,Clinic,Yes,Yes,No,No,No,No,No,Yes,Yes,Yes,No,No,Yes,No,Yes,Yes,No,No,No,,Registered,
Zabasa Clinic,28.27157,-31.4464,Rural,Clinic,Yes,Yes,No,No,No,No,No,Yes,Yes,Yes,No,No,Yes,No,Yes,Yes,No,No,No,,Registered,
Zadungeni Clinic,27.89382,-31.5612,Rural,Clinic,Yes,Yes,No,No,No,No,No,Yes,Yes,Yes,No,No,Yes,No,Yes,Yes,No,No,No,,Registered,
Zwelakhe Dalasile CHC,28.24387,-31.6481,Rural,Community Health Centre,Yes,Yes,No,Yes,No,No,No,Yes,Yes,Yes,Yes,No,Yes,No,Yes,Yes,No,No,No,,Registered,
Zwelakhe Dalasile Mobile 1,28.24387,-31.6481,Rural,Mobile Service,Yes,Yes,No,No,No,No,No,Yes,Yes,Yes,No,No,Yes,No,Yes,No,No,No,No,,Not Registered,
Bacclesfarm Clinic,26.45647,-32.0399,Rural,Clinic,Yes,Yes,No,No,No,No,No,Yes,Yes,Yes,No,No,Yes,No,Yes,Yes,No,No,No,,Registered,
Cradock Hospital,25.62243,-32.1673,Urban,District Hospital,Yes,Yes,No,No,Yes,No,Yes,Yes,Yes,Yes,No,Yes,Yes,No,Yes,Yes,No,No,No,,Not Registered,
Cimezile Clinic,26.62354,-32.274,Rural,Clinic,Yes,Yes,No,No,No,No,No,Yes,Yes,Yes,No,No,Yes,No,Yes,Yes,No,Yes,No,,Registered,
Didimana Clinic,26.8186,-32.1758,Rural,Clinic,Yes,Yes,No,No,No,No,No,Yes,Yes,Yes,No,No,Yes,No,Yes,Yes,No,No,No,,Registered,
Ekuphumleni Clinic,26.78186,-32.1781,Rural,Clinic,Yes,Yes,No,Yes,No,No,No,Yes,Yes,Yes,No,No,Yes,No,Yes,Yes,No,No,No,,Registered,
Eluxolweni Clinic,25.80519,-31.6433,Rural,Clinic,Yes,Yes,No,Yes,No,No,No,Yes,Yes,Yes,No,No,Yes,No,Yes,Yes,No,No,No,,Registered,
Engojini Clinic,26.75392,-32.2239,Rural,Clinic,Yes,Yes,No,Yes,No,No,No,Yes,Yes,Yes,No,No,Yes,No,Yes,Yes,No,No,No,,Registered,
Ezibeleni Clinic,26.95643,-31.9081,Urban,Clinic,Yes,Yes,No,No,No,No,No,Yes,Yes,Yes,No,No,Yes,No,Yes,Yes,No,No,No,,Registered,
Fransbury Clinic,27.07476,-31.9642,Rural,Clinic,Yes,Yes,No,Yes,No,No,No,Yes,Yes,Yes,No,No,Yes,No,Yes,Yes,No,No,No,,Registered,
Gardens Clinic,26.8719,-31.8949,Urban,Clinic,Yes,Yes,No,Yes,No,No,No,Yes,Yes,Yes,No,No,Yes,No,Yes,Yes,No,No,No,,Registered,
Gwatyu Clinic,27.31561,-32.0169,Peri-Urban,Clinic,Yes,Yes,No,Yes,No,No,No,Yes,Yes,Yes,Yes,No,Yes,No,Yes,Yes,No,No,No,,Registered,
Hackney Clinic,26.64521,-32.3144,Rural,Clinic,Yes,Yes,No,No,No,No,No,Yes,Yes,Yes,No,No,Yes,No,Yes,Yes,No,No,No,,Registered,
Haytor Clinic,26.77051,-32.2942,Rural,Clinic,Yes,Yes,No,No,No,No,No,Yes,Yes,Yes,No,No,Yes,No,Yes,Yes,No,No,No,,Not Registered,
Hewu Mobile 1,26.81038,-32.2028,Rural,Mobile Service,Yes,Yes,No,No,No,No,No,Yes,No,Yes,No,No,Yes,No,Yes,No,No,No,No,,Not Registered,
Hewu Mobile 2,26.81038,-32.2028,Rural,Mobile Service,Yes,Yes,No,No,No,No,No,Yes,Yes,No,No,No,Yes,No,Yes,No,No,No,No,,Not Registered,
Hewu Mobile 3,26.64874,-32.0695,Rural,Mobile Service,Yes,Yes,No,No,No,No,No,Yes,No,Yes,No,No,Yes,No,Yes,No,No,No,No,,Not Registered,
Hofmeyer Clinic,25.80396,-31.6558,Peri-Urban,Clinic,Yes,Yes,No,Yes,No,No,No,Yes,Yes,Yes,Yes,No,Yes,No,Yes,Yes,No,No,No,,Registered,
Wilhelm Stahl (Middelburg) Hospital,24.99351,-31.4917,Urban,District Hospital,No,Yes,No,Yes,Yes,No,Yes,Yes,Yes,Yes,Yes,Yes,Yes,No,Yes,Yes,No,No,No,,Not Registered,
Hofmeyer Mobile 1,25.80532,-31.6541,Rural,Mobile Service,Yes,Yes,No,Yes,No,No,No,Yes,Yes,No,No,No,Yes,No,Yes,No,No,Yes,No,,Not Registered,
Hukuwa Clinic,26.64698,-32.1554,Rural,Clinic,Yes,Yes,No,No,No,No,No,Yes,Yes,Yes,No,No,Yes,No,Yes,Yes,No,No,No,,Registered,
Cala Hospital,27.68274,-31.5223,Urban,District Hospital,Yes,Yes,No,Yes,No,No,Yes,Yes,No,Yes,Yes,Yes,Yes,No,Yes,Yes,No,No,No,,Not Registered,
Ilinge Clinic,27.0402,-31.9773,Urban,Clinic,Yes,Yes,Yes,Yes,No,No,Yes,Yes,Yes,Yes,Yes,No,Yes,Yes,Yes,Yes,No,Yes,No,,Registered,
Kamastone Clinic,26.64874,-32.0695,Rural,Clinic,Yes,Yes,No,Yes,No,No,No,Yes,Yes,Yes,No,No,Yes,No,Yes,Yes,No,No,No,,Registered,
KB Siswana Clinic,26.54925,-31.5592,Peri-Urban,Clinic,Yes,Yes,No,Yes,No,No,No,Yes,Yes,Yes,No,No,Yes,No,Yes,Yes,No,No,No,,Registered,
Elliot Hospital,27.83797,-31.3371,Urban,District Hospital,No,Yes,No,No,Yes,No,Yes,Yes,Yes,Yes,Yes,Yes,Yes,No,Yes,Yes,No,No,No,,Not Registered,
Kleinbulhoek Clinic,26.56023,-32.1,Rural,Clinic,Yes,Yes,No,Yes,No,No,Yes,Yes,Yes,Yes,No,No,Yes,No,Yes,Yes,No,Yes,No,,Registered,
Komani Hospital,26.907204,-31.9171,Urban,Specialised Psychiatric Hospital,No,Yes,No,No,No,No,No,Yes,No,Yes,No,No,Yes,No,Yes,Yes,No,No,No,,Not Registered,
Lahlangubo Clinic (Queenstown),26.69507,-32.2013,Rural,Clinic,Yes,Yes,No,Yes,No,No,No,Yes,Yes,Yes,No,No,Yes,No,Yes,Yes,No,No,No,,Registered,
Lesseyton Clinic,26.77731,-31.8424,Rural,Clinic,Yes,Yes,No,Yes,No,No,No,Yes,Yes,Yes,No,No,Yes,No,Yes,Yes,No,No,No,,Registered,
Lesseyton Mobile 1,26.77731,-31.8424,Rural,Mobile Service,Yes,Yes,No,No,No,No,No,Yes,No,Yes,No,No,Yes,No,Yes,No,No,No,No,,Not Registered,
Lizo Ngcana Clinic,26.86329,-31.9216,Urban,Clinic,Yes,Yes,No,Yes,No,No,No,Yes,Yes,Yes,No,No,Yes,No,Yes,Yes,No,No,No,,Registered,
Machibini Clinic (Queenstown),27.02443,-31.9205,Rural,Clinic,Yes,Yes,No,Yes,No,No,No,Yes,Yes,Yes,No,No,Yes,No,Yes,Yes,No,No,No,,Registered,
Martje Venter (Tarkastad) Hospital,26.25884,-32.0089,Urban,District Hospital,No,Yes,No,No,No,No,Yes,Yes,No,Yes,Yes,Yes,Yes,No,Yes,Yes,No,No,No,,Not Registered,
Masakhe Clinic,26.56006,-31.5544,Urban,Clinic,Yes,Yes,No,No,No,No,No,Yes,Yes,Yes,No,No,Yes,No,Yes,Yes,No,No,No,,Registered,
Mitford Clinic,26.53048,-31.9895,Rural,Clinic,Yes,Yes,No,Yes,No,No,No,Yes,Yes,Yes,No,No,Yes,No,Yes,Yes,No,No,No,,Registered,
Molteno Clinic,26.36049,-31.3959,Peri-Urban,Clinic,Yes,Yes,No,Yes,No,No,No,Yes,Yes,Yes,No,No,Yes,No,Yes,Yes,No,No,No,,Registered,
Molteno Hospital,26.3555,-31.3916,Peri-Urban,District Hospital,No,Yes,No,No,No,No,Yes,Yes,No,Yes,No,No,Yes,No,Yes,Yes,No,No,No,,Not Registered,
Molteno Mobile 1,26.36049,-31.3959,Peri-Urban,Mobile Service,Yes,Yes,No,Yes,No,No,No,Yes,Yes,Yes,No,No,Yes,No,Yes,Yes,No,No,No,,Not Registered,
Nceduluntu Clinic,26.35395,-31.3774,Urban,Clinic,Yes,Yes,No,Yes,No,No,No,Yes,Yes,Yes,Yes,No,Yes,No,Yes,Yes,No,No,No,,Registered,
New Rest Clinic,26.87168,-31.904,Urban,Clinic,Yes,Yes,No,No,No,No,No,Yes,Yes,Yes,No,No,Yes,No,Yes,Yes,No,No,No,,Registered,
Nomonde Clinic,26.35892,-31.3865,Urban,Clinic,Yes,Yes,No,Yes,No,No,No,Yes,Yes,Yes,No,No,Yes,No,Yes,Yes,No,No,No,,Registered,
Nomzamo CHC,26.97074,-31.913,Urban,Community Health Centre,Yes,Yes,No,Yes,No,No,No,Yes,Yes,Yes,Yes,No,Yes,No,Yes,Yes,No,No,No,,Registered,
Oxton Clinic,26.70609,-32.2279,Rural,Clinic,Yes,Yes,No,No,No,No,No,Yes,Yes,Yes,No,No,Yes,No,Yes,Yes,No,No,No,,Registered,
Parkvale Clinic,26.87389,-31.9211,Urban,Clinic,Yes,Yes,No,No,No,No,No,Yes,Yes,Yes,No,No,Yes,No,Yes,Yes,No,No,No,,Registered,
Philani Clinic (Queenstown),26.87025,-31.9108,Urban,Clinic,Yes,Yes,No,No,No,No,No,Yes,Yes,Yes,Yes,No,Yes,No,Yes,Yes,No,No,No,,Registered,
Pricesdale Clinic,26.72643,-32.2477,Rural,Clinic,Yes,Yes,No,No,No,No,No,Yes,Yes,Yes,No,No,Yes,No,Yes,Yes,No,No,No,,Registered,
Queenstown Mobile 1,26.87025,-31.9108,Rural,Mobile Service,Yes,Yes,No,Yes,No,No,No,Yes,Yes,Yes,No,No,Yes,No,Yes,No,No,No,No,,Not Registered,
Queenstown Mobile 2,26.87025,-31.9108,Rural,Mobile Service,Yes,Yes,No,No,No,No,No,Yes,No,No,No,No,Yes,No,Yes,No,No,No,No,,Not Registered,
Sada Clinic,26.81038,-32.2028,Urban,Clinic,Yes,Yes,No,Yes,No,No,No,Yes,Yes,Yes,No,No,Yes,No,Yes,Yes,No,No,No,,Registered,
Shiloh Clinic,26.82721,-32.2003,Rural,Clinic,Yes,Yes,Yes,No,No,No,No,Yes,Yes,Yes,No,No,Yes,No,Yes,Yes,No,No,No,,Registered,
Springrove Clinic,26.46334,-32.1105,Rural,Clinic,Yes,Yes,No,Yes,No,No,No,Yes,Yes,Yes,No,No,Yes,No,Yes,Yes,No,No,No,,Registered,
Sterkstroom Hospital,26.55338,-31.5531,Peri-Urban,District Hospital,No,Yes,No,Yes,No,No,Yes,Yes,Yes,Yes,No,No,Yes,No,Yes,Yes,No,No,No,,Not Registered,
Sterkstroom Mobile 1,26.55336,-31.5531,Peri-Urban,Mobile Service,Yes,Yes,No,No,No,No,No,Yes,Yes,No,No,No,Yes,No,Yes,No,No,No,No,,Not Registered,
Tarkastad Clinic,26.25936,-32.0099,Urban,Clinic,Yes,Yes,No,Yes,No,No,No,Yes,Yes,Yes,No,No,Yes,Yes,Yes,Yes,No,No,No,,Registered,
Tarkastad Mobile 1,26.25936,-32.0099,Peri-Urban,Mobile Service,Yes,Yes,No,No,No,No,No,Yes,Yes,Yes,No,No,Yes,No,Yes,No,No,No,No,,Not Registered,
Tentergate Clinic,26.46209,-32.0907,Rural,Clinic,Yes,Yes,No,Yes,No,No,No,Yes,Yes,Yes,No,No,Yes,No,Yes,Yes,No,No,No,,Registered,
Thornhill CHC,26.61368,-31.9872,Rural,Community Health Centre,Yes,Yes,Yes,Yes,No,No,No,Yes,Yes,Yes,Yes,No,Yes,Yes,Yes,Yes,No,No,No,,Registered,
Tsitsikamma Clinic,26.56985,-32.2269,Rural,Clinic,Yes,Yes,No,No,No,No,No,Yes,Yes,Yes,No,No,Yes,No,Yes,Yes,No,No,No,,Registered,
Taylor Bequest Hospital (Elundini),28.50961,-30.6894,Urban,District Hospital,Yes,Yes,Yes,Yes,Yes,No,Yes,Yes,No,Yes,Yes,Yes,Yes,No,Yes,Yes,No,No,No,,Registered,
Tylden Clinic,27.07048,-32.115,Peri-Urban,Clinic,Yes,Yes,No,No,No,No,No,Yes,Yes,No,No,No,Yes,No,Yes,Yes,No,Yes,No,,Registered,
Whittlesea CHC,26.82082,-32.1729,Peri-Urban,Community Health Centre,Yes,Yes,No,Yes,No,No,No,Yes,Yes,Yes,Yes,No,Yes,No,Yes,Yes,No,No,No,,Registered,
Yonda Clinic,26.67465,-32.2842,Rural,Clinic,Yes,Yes,No,Yes,No,No,No,Yes,Yes,Yes,No,No,Yes,No,Yes,Yes,No,No,No,,Registered,
Zingquthu Clinic,26.86089,-31.7514,Rural,Clinic,Yes,Yes,No,No,No,No,No,Yes,Yes,Yes,Yes,No,Yes,No,Yes,Yes,No,No,No,,Registered,
Zola Clinic,26.24756,-32.0115,Urban,Clinic,Yes,Yes,No,No,No,No,No,Yes,Yes,Yes,Yes,No,Yes,No,Yes,Yes,No,No,No,,Registered,
Zweledinga Clinic,26.67521,-32.322,Rural,Clinic,Yes,Yes,No,No,No,No,No,Yes,Yes,Yes,No,No,Yes,No,Yes,Yes,No,No,No,,Registered,
Banzi Clinic,27.51978,-32.1263,Rural,Clinic,Yes,Yes,No,Yes,No,No,No,Yes,Yes,Yes,No,No,Yes,No,Yes,Yes,No,No,No,,Registered,
Bilatye Clinic,27.365139,-31.9464,Rural,Clinic,Yes,Yes,Yes,Yes,No,No,No,Yes,Yes,Yes,No,No,Yes,No,Yes,Yes,No,No,No,,Registered,
Bolotwa Clinic (Confimvaba),27.20089,-31.5919,Rural,Clinic,Yes,Yes,No,Yes,No,No,No,Yes,Yes,Yes,No,No,Yes,No,Yes,Yes,No,No,No,,Registered,
Cloete Joubert (Barkly East) Hospital,27.58507,-30.9676,Urban,District Hospital,Yes,Yes,No,Yes,No,No,Yes,Yes,No,Yes,No,Yes,Yes,No,Yes,Yes,No,No,No,,Not Registered,
Empilisweni Hospital,27.35337,-30.5332,Rural,District Hospital,No,Yes,Yes,No,Yes,No,Yes,Yes,No,Yes,Yes,Yes,Yes,No,Yes,Yes,No,Yes,Yes,,Not Registered,
Cofimvaba Mobile 1,27.58348,-32.0119,Urban,Mobile Service,Yes,Yes,No,No,No,No,No,Yes,No,Yes,No,No,Yes,No,Yes,No,No,Yes,No,,Not Registered,
Cofimvaba Mobile 2,27.58348,-32.0119,Urban,Mobile Service,Yes,Yes,No,No,No,No,No,Yes,No,Yes,No,No,Yes,No,Yes,No,No,No,No,,Not Registered,
Cofimvaba Mobile 3,27.58348,-32.0119,Urban,Mobile Service,Yes,Yes,No,No,No,No,No,Yes,No,Yes,No,No,Yes,No,Yes,No,No,No,No,,Not Registered,
Gqogqora Clinic,27.8884,-31.9805,Rural,Clinic,Yes,Yes,No,Yes,No,No,No,Yes,Yes,Yes,No,No,Yes,No,Yes,Yes,No,No,No,,Registered,
Isikhoba Clinic,27.58225,-32.0098,Urban,Clinic,Yes,Yes,No,Yes,No,No,No,Yes,Yes,Yes,No,Yes,Yes,No,Yes,Yes,No,No,No,,Registered,
Khuze Clinic,27.62775,-32.2127,Rural,Clinic,Yes,Yes,No,Yes,No,No,No,Yes,Yes,Yes,No,No,Yes,No,Yes,Yes,No,No,No,,Not Registered,
Ku Bengu Clinic,27.61732,-32.1434,Rural,Clinic,Yes,Yes,No,No,No,No,No,Yes,Yes,Yes,No,No,Yes,No,Yes,Yes,No,No,No,,Not Registered,
Kuyasa CHC,27.58245,-32.0071,Urban,Community Health Centre,Yes,Yes,No,Yes,No,No,No,Yes,Yes,Yes,No,No,Yes,No,Yes,Yes,No,No,No,,Registered,
Lower Mncuncuzo Clinic,27.59776,-31.9083,Rural,Clinic,Yes,Yes,No,Yes,No,No,No,Yes,Yes,Yes,No,No,Yes,No,Yes,Yes,No,No,No,,Registered,
Lower Seplan Clinic,27.4433,-31.7127,Rural,Clinic,Yes,Yes,No,Yes,No,No,No,Yes,Yes,Yes,No,No,Yes,No,Yes,Yes,No,No,No,,Registered,
Lubisi Clinic,27.46015,-31.7989,Rural,Clinic,Yes,Yes,No,Yes,No,No,No,Yes,Yes,Yes,No,Yes,Yes,No,Yes,Yes,No,No,No,,Registered,
Luthuli Clinic,27.739151,-32.1199,Rural,Clinic,Yes,Yes,No,Yes,No,No,No,Yes,Yes,Yes,No,No,Yes,No,Yes,Yes,No,No,No,,Registered,
Magwala Clinic,27.54977,-32.0069,Rural,Clinic,Yes,Yes,No,Yes,No,No,No,Yes,Yes,Yes,No,Yes,Yes,No,Yes,Yes,No,No,No,,Registered,
Mahlubini Clinic,27.61034,-32.0226,Rural,Clinic,Yes,Yes,No,Yes,No,No,No,Yes,Yes,Yes,No,Yes,Yes,No,Yes,Yes,No,No,No,,Registered,
Mawusheni Clinic,27.67016,-31.9406,Rural,Clinic,Yes,Yes,No,Yes,No,No,No,Yes,Yes,Yes,No,No,Yes,No,Yes,Yes,No,No,No,,Registered,
Mbulukweza Clinic,27.71693,-32.2326,Rural,Clinic,Yes,Yes,No,Yes,No,No,No,Yes,Yes,Yes,No,No,Yes,No,Yes,Yes,No,No,No,,Registered,
Mcambalala Clinic,27.49444,-31.8841,Rural,Clinic,Yes,Yes,Yes,Yes,No,No,No,Yes,Yes,Yes,No,No,Yes,Yes,Yes,Yes,No,No,No,,Registered,
Mtingwevu Clinic,27.62817,-31.747,Rural,Clinic,Yes,Yes,Yes,No,No,No,No,Yes,Yes,Yes,No,No,Yes,No,Yes,Yes,No,No,No,,Registered,
Ncora Clinic,27.74082,-31.8185,Rural,Clinic,Yes,Yes,Yes,Yes,No,No,No,Yes,Yes,Yes,Yes,No,Yes,No,Yes,Yes,No,No,No,,Registered,
Ngceza Clinic,27.73446,-31.9747,Rural,Clinic,Yes,Yes,No,Yes,No,No,No,Yes,Yes,Yes,No,No,Yes,No,Yes,Yes,No,No,No,,Registered,
Ngqwaru Clinic,27.7849,-31.8552,Rural,Clinic,Yes,Yes,No,Yes,No,No,No,Yes,Yes,Yes,No,No,Yes,No,Yes,Yes,No,No,No,,Registered,
Ngxabangu Clinic,27.610322,-31.8452,Rural,Clinic,Yes,Yes,No,Yes,No,No,No,Yes,Yes,Yes,No,No,Yes,No,Yes,Yes,No,No,No,,Registered,
Nququ Clinic,27.61321,-31.8121,Rural,Clinic,Yes,Yes,No,No,No,No,No,Yes,Yes,Yes,No,No,Yes,No,Yes,Yes,No,No,No,,Registered,
Ntshingeni Clinic,27.425195,-32.0475,Rural,Clinic,Yes,Yes,No,Yes,No,No,Yes,Yes,Yes,Yes,No,No,Yes,No,Yes,Yes,No,No,No,,Registered,
Ntsitho Clinic,28.21192,-31.8592,Rural,Clinic,Yes,Yes,No,Yes,No,No,Yes,Yes,Yes,Yes,No,No,Yes,No,Yes,Yes,No,No,No,,Registered,
Plumstead Clinic,27.79333,-32.0262,Peri-Urban,Clinic,Yes,Yes,No,Yes,No,No,No,Yes,Yes,Yes,No,No,Yes,No,Yes,Yes,No,No,No,,Registered,
Qamata Clinic,27.43482,-31.9746,Rural,Clinic,Yes,Yes,Yes,Yes,No,No,No,Yes,Yes,Yes,No,No,Yes,No,Yes,Yes,No,No,No,,Registered,
Qitsi Clinic,27.92868,-31.9187,Rural,Clinic,Yes,Yes,Yes,Yes,No,No,No,Yes,Yes,Yes,No,No,Yes,No,Yes,Yes,No,No,No,,Registered,
Qombolo Clinic,27.66446,-32.0024,Rural,Clinic,Yes,Yes,No,Yes,No,No,No,Yes,Yes,Yes,No,No,Yes,No,Yes,Yes,No,No,No,,Registered,
Qumanco J Tribal Clinic,27.81937,-31.7938,Rural,Clinic,Yes,Yes,No,Yes,No,No,No,Yes,Yes,Yes,No,No,Yes,No,Yes,Yes,No,No,No,,Registered,
Qwiliqwili Clinic,27.736927,-32.2836,Rural,Clinic,Yes,Yes,No,No,No,No,No,Yes,Yes,Yes,No,No,Yes,No,Yes,Yes,No,No,No,,Not Registered,
Sabalele Clinic,27.45574,-32.1065,Rural,Clinic,Yes,Yes,No,No,No,No,No,Yes,Yes,Yes,No,Yes,Yes,No,Yes,Yes,No,No,No,,Registered,
St Mark's Clinic,27.40759,-32.0127,Rural,Clinic,Yes,Yes,No,Yes,No,No,No,Yes,Yes,Yes,Yes,Yes,Yes,No,Yes,Yes,No,No,No,,Registered,
Tsakana Clinic,27.468639,-31.8478,Rural,Clinic,Yes,Yes,No,Yes,No,No,No,Yes,Yes,Yes,No,No,Yes,No,Yes,Yes,No,No,No,,Registered,
Tsomo Mobile 1 (Intsika Yethu),27.8213,-32.0383,Peri-Urban,Mobile Service,Yes,Yes,No,No,No,No,No,Yes,No,Yes,No,No,Yes,No,Yes,No,No,No,No,,Not Registered,
Tsomo Village Clinic,27.82084,-32.0383,Peri-Urban,Clinic,Yes,Yes,No,No,No,No,No,Yes,Yes,Yes,No,Yes,Yes,No,Yes,Yes,No,No,No,,Registered,
Upper Mncuncuzo Clinic,27.54861,-31.9089,Rural,Clinic,Yes,Yes,No,Yes,No,No,No,Yes,Yes,Yes,No,Yes,Yes,No,Yes,Yes,No,No,No,,Registered,
Xume Clinic,27.9032,-32.0595,Rural,Clinic,Yes,Yes,No,Yes,No,No,No,Yes,Yes,Yes,No,No,Yes,No,Yes,Yes,No,No,No,,Registered,
Baroda Clinic,25.51025,-32.0021,Urban,Clinic,Yes,Yes,No,Yes,No,No,No,Yes,Yes,Yes,No,No,Yes,No,Yes,Yes,No,No,No,,Registered,
Steynsburg Hospital,25.813211,-31.2932,Peri-Urban,District Hospital,No,Yes,No,No,No,No,No,Yes,No,Yes,Yes,No,Yes,No,Yes,No,No,No,No,,Not Registered,
Cradock Mobile 1,25.61616,-32.1686,Peri-Urban,Mobile Service,No,No,No,No,No,No,No,No,No,No,No,No,Yes,No,No,No,No,Yes,No,,Not Registered,
Cradock Mobile 2,25.61616,-32.1686,Peri-Urban,Mobile Service,Yes,Yes,No,No,No,No,No,Yes,Yes,Yes,No,No,Yes,No,Yes,No,No,No,No,,Not Registered,
Cradock Mobile 3,25.61616,-32.1686,Peri-Urban,Mobile Service,Yes,Yes,No,No,No,No,No,Yes,Yes,Yes,No,No,Yes,No,Yes,Yes,No,No,No,,Not Registered,
Fish River Clinic,25.41589,-31.9119,Rural,Clinic,Yes,Yes,No,No,No,No,No,Yes,Yes,Yes,No,No,Yes,No,Yes,Yes,No,No,No,,Registered,
High Street Clinic,25.61616,-32.1686,Urban,Clinic,Yes,Yes,No,Yes,No,No,No,Yes,Yes,Yes,No,No,Yes,No,Yes,Yes,No,No,No,,Registered,
Kwanonzame New Clinic,24.99938,-31.5166,Urban,Clinic,Yes,Yes,No,Yes,No,No,No,Yes,Yes,Yes,No,No,Yes,No,Yes,Yes,No,No,No,,Registered,
Dora Nginza Hospital,25.563114,-33.8825,Urban,Regional Hospital,Yes,Yes,Yes,Yes,Yes,No,No,Yes,Yes,Yes,No,Yes,Yes,No,Yes,Yes,No,No,No,,Registered,
Kwanonzame Old Clinic,25.0091,-31.5167,Urban,Clinic,Yes,Yes,No,Yes,No,No,No,Yes,Yes,Yes,No,No,Yes,No,Yes,Yes,No,Yes,Yes,,Registered,
Lingelihle Clinic,25.62915,-32.1806,Urban,Clinic,Yes,Yes,No,Yes,No,No,No,Yes,Yes,Yes,Yes,No,Yes,No,Yes,Yes,No,No,No,,Registered,
Michausdal Clinic,25.64495,-32.1736,Urban,Clinic,Yes,Yes,No,No,No,No,No,Yes,Yes,Yes,No,No,Yes,Yes,Yes,Yes,No,No,No,,Registered,
Middelburg Clinic,25.00791,-31.4952,Urban,Clinic,Yes,Yes,No,Yes,No,No,No,Yes,Yes,Yes,No,No,Yes,No,Yes,Yes,No,No,No,,Registered,
Midros Clinic,25.02635,-31.5029,Urban,Clinic,Yes,Yes,No,Yes,No,No,No,Yes,Yes,Yes,No,No,Yes,Yes,Yes,Yes,No,No,No,,Registered,
Philani Clinic (Cradock),25.64048,-32.182,Urban,Clinic,Yes,Yes,No,Yes,No,No,No,Yes,Yes,Yes,No,No,Yes,No,Yes,Yes,No,No,No,,Registered,
Askeaton Clinic,27.46074,-31.6252,Rural,Clinic,Yes,Yes,No,Yes,No,No,Yes,Yes,Yes,Yes,No,No,Yes,No,Yes,Yes,No,No,No,,Registered,
Motherwell CHC,25.59794,-33.8118,Urban,Community Health Centre,Yes,Yes,Yes,Yes,No,No,No,Yes,Yes,Yes,Yes,Yes,Yes,No,Yes,Yes,No,No,No,,Registered,
Beestekraal Clinic,27.80971,-31.5196,Rural,Clinic,Yes,Yes,No,No,No,No,No,Yes,Yes,Yes,No,No,Yes,No,Yes,Yes,No,Yes,No,,Registered,
Cala Mobile 1,27.6829,-31.5223,Urban,Mobile Service,Yes,Yes,No,No,No,No,No,Yes,No,Yes,No,No,Yes,No,Yes,No,No,No,No,,Not Registered,
Cala Mobile 2,27.6829,-31.5223,Urban,Mobile Service,Yes,Yes,No,No,No,No,No,Yes,No,Yes,No,No,Yes,No,Yes,No,No,No,No,,Not Registered,
Elliot Clinic,27.84953,-31.3333,Urban,Clinic,Yes,Yes,No,Yes,No,No,No,Yes,Yes,Yes,No,No,Yes,No,Yes,Yes,No,No,No,,Registered,
Elliot Mobile 1,27.85304,-31.3372,Urban,Mobile Service,Yes,Yes,No,No,No,No,No,Yes,No,Yes,No,No,Yes,No,Yes,No,No,No,No,,Not Registered,
Manzimahle Clinic,27.556488,-31.6246,Rural,Clinic,Yes,Yes,No,No,No,No,No,Yes,Yes,Yes,No,No,Yes,No,Yes,Yes,No,No,No,,Registered,
Mcewula Clinic,27.528417,-31.5121,Rural,Clinic,Yes,Yes,No,Yes,No,No,No,Yes,Yes,Yes,Yes,No,Yes,No,Yes,Yes,No,No,No,,Registered,
Mhlwazi Clinic,27.988413,-31.5137,Urban,Clinic,Yes,Yes,No,Yes,No,No,No,Yes,Yes,Yes,No,No,Yes,No,Yes,Yes,No,No,No,,Registered,
Ncedolwethu Clinic,27.82309,-31.3295,Urban,Clinic,Yes,Yes,No,No,No,No,No,Yes,Yes,Yes,No,No,Yes,No,Yes,Yes,No,No,No,,Registered,
Nyalasa Clinic,27.67961,-31.6908,Rural,Clinic,Yes,Yes,No,Yes,No,No,No,Yes,Yes,Yes,No,No,Yes,No,Yes,Yes,No,No,No,,Registered,
Qhiba Clinic,27.72345,-31.4385,Rural,Clinic,Yes,Yes,No,Yes,No,No,No,Yes,Yes,Yes,Yes,No,Yes,No,Yes,Yes,No,No,No,,Registered,
Sifonondile Clinic,27.64003,-31.4913,Rural,Clinic,Yes,Yes,No,Yes,No,No,No,Yes,Yes,No,No,No,Yes,No,Yes,Yes,No,No,No,,Registered,
Tembelihle Clinic,27.70009,-31.5275,Urban,Clinic,Yes,Yes,No,Yes,No,No,No,Yes,Yes,Yes,Yes,No,Yes,No,Yes,Yes,No,No,No,,Registered,
Thembalethu Clinic (Sakhisizwe),27.86087,-31.3376,Urban,Clinic,Yes,Yes,No,Yes,No,No,No,Yes,Yes,Yes,No,No,Yes,No,Yes,Yes,No,No,No,,Registered,
Tsengiwe Clinic,27.657083,-31.5732,Rural,Clinic,Yes,Yes,No,Yes,No,No,Yes,Yes,Yes,Yes,No,No,Yes,No,Yes,Yes,No,No,No,,Registered,
Upper Lafuta Clinic,27.62406,-31.6316,Rural,Clinic,Yes,Yes,No,Yes,No,No,No,Yes,Yes,Yes,No,No,Yes,No,Yes,Yes,No,No,No,,Registered,
Bethania Clinic,28.33295,-30.6228,Rural,Clinic,Yes,Yes,No,No,No,No,No,Yes,Yes,Yes,Yes,No,Yes,No,Yes,Yes,No,No,No,,Registered,
Gqaqhala Clinic,28.387472,-31.2828,Rural,Clinic,Yes,Yes,No,No,No,No,No,Yes,Yes,Yes,Yes,No,Yes,No,Yes,Yes,No,No,No,,Not Registered,
Hlangalane Clinic,28.55037,-30.9586,Rural,Clinic,Yes,Yes,No,Yes,No,No,No,Yes,Yes,Yes,Yes,No,Yes,No,Yes,Yes,No,No,No,,Registered,
Hlankomo Clinic,28.41911,-30.9303,Rural,Clinic,Yes,Yes,No,Yes,No,No,No,Yes,Yes,Yes,Yes,No,Yes,No,Yes,Yes,No,No,No,,Registered,
Laetitia Bam CHC,25.39833,-33.808,Urban,Community Health Centre,Yes,Yes,No,Yes,No,No,Yes,Yes,Yes,Yes,Yes,Yes,Yes,No,Yes,Yes,No,No,No,,Registered,
Katkop Clinic,28.54941,-30.8977,Rural,Clinic,Yes,Yes,No,Yes,No,No,No,Yes,Yes,Yes,Yes,No,Yes,No,Yes,Yes,No,Yes,No,,Registered,
Kungisizwe Clinic,28.60494,-30.8285,Rural,Clinic,Yes,Yes,No,Yes,No,No,No,Yes,Yes,Yes,Yes,No,Yes,No,Yes,Yes,No,No,No,,Not Registered,
Lower Tsitsana Clinic,28.20802,-30.526,Rural,Clinic,Yes,Yes,No,Yes,No,No,No,Yes,Yes,Yes,Yes,Yes,Yes,No,Yes,Yes,No,No,No,,Registered,
Maclear Clinic,28.35162,-31.0688,Rural,Clinic,Yes,Yes,No,Yes,No,No,No,Yes,Yes,Yes,Yes,No,Yes,No,Yes,Yes,No,No,No,,Registered,
Maclear Hospital,28.34775,-31.0759,Urban,District Hospital,No,Yes,No,No,No,No,Yes,Yes,No,Yes,No,No,Yes,No,Yes,Yes,No,No,No,,Not Registered,
Maclear Mobile 1,28.35162,-31.0688,Rural,Mobile Service,Yes,Yes,No,Yes,No,No,No,Yes,Yes,Yes,No,No,Yes,No,Yes,No,No,No,No,,Not Registered,
Mangoloaneng Clinic,28.46059,-30.5157,Rural,Clinic,Yes,Yes,No,Yes,No,No,No,Yes,Yes,Yes,No,No,Yes,No,Yes,Yes,No,No,No,,Registered,
Mqokolweni Clinic,28.549333,-31.1219,Rural,Clinic,Yes,Yes,No,No,No,No,No,Yes,Yes,Yes,Yes,No,Yes,No,Yes,Yes,No,No,No,,Not Registered,
Ncembu Clinic,28.40669,-31.3516,Rural,Clinic,Yes,Yes,No,Yes,No,No,No,Yes,Yes,Yes,No,No,Yes,No,Yes,Yes,No,No,No,,Not Registered,
Ngxaza Clinic,28.50639,-31.2148,Rural,Clinic,Yes,Yes,No,No,No,No,No,Yes,Yes,Yes,Yes,No,Yes,No,Yes,Yes,No,No,No,,Not Registered,
Queen Noti Clinic,28.54875,-31.1614,Rural,Clinic,Yes,Yes,No,Yes,No,No,No,Yes,Yes,Yes,Yes,Yes,Yes,No,Yes,Yes,No,No,No,,Registered,
Uitenhage Hospital,25.40679,-33.7415,Urban,District Hospital,Yes,Yes,Yes,Yes,Yes,Yes,Yes,No,No,Yes,Yes,Yes,Yes,No,Yes,Yes,No,No,No,,Not Registered,
Seqhobong Clinic,28.42479,-30.4353,Rural,Clinic,Yes,Yes,No,Yes,No,No,No,Yes,Yes,Yes,Yes,No,Yes,No,Yes,Yes,No,Yes,No,,Not Registered,
Siqhungqwini Mobile 1,28.50962,-30.6894,Rural,Mobile Service,Yes,Yes,No,No,No,No,No,Yes,No,Yes,No,No,Yes,No,No,No,No,No,No,,Not Registered,
Sonwabile Clinic,28.36102,-31.0745,Urban,Clinic,Yes,Yes,No,No,No,No,No,Yes,Yes,Yes,Yes,No,Yes,No,Yes,Yes,No,No,No,,Registered,
St Augustine's Clinic,28.60248,-31.2242,Rural,Clinic,Yes,Yes,No,No,No,No,No,Yes,Yes,Yes,Yes,No,Yes,No,Yes,Yes,No,No,No,,Not Registered,
Taylor Bequest Gateway Clinic (Elundini),28.50994,-30.6892,Urban,Clinic,Yes,Yes,No,Yes,No,No,No,Yes,Yes,Yes,Yes,No,Yes,No,Yes,Yes,No,No,No,,Registered,
Taylor Bequest Mobile 1 (Elundini),28.50962,-30.6894,Urban,Mobile Service,Yes,Yes,No,No,No,No,No,Yes,Yes,Yes,No,No,Yes,No,Yes,No,No,No,No,,Not Registered,
Ugie Clinic,28.23143,-31.1967,Rural,Clinic,Yes,Yes,No,No,No,No,No,Yes,No,Yes,No,No,Yes,No,Yes,Yes,No,No,No,,Registered,
Ugie Mobile 1,28.23143,-31.1967,Rural,Mobile Service,Yes,Yes,No,No,No,No,No,Yes,No,No,No,No,Yes,No,Yes,No,No,No,No,,Not Registered,
Ulundi Clinic,28.20936,-30.644,Rural,Clinic,Yes,Yes,No,Yes,No,No,No,Yes,Yes,Yes,Yes,No,Yes,No,Yes,Yes,No,No,No,,Registered,
Umnga Flats Clinic,28.36893,-31.4386,Rural,Clinic,Yes,Yes,No,No,No,No,No,Yes,Yes,Yes,No,No,Yes,Yes,Yes,Yes,No,No,No,,Not Registered,
Barkly East Mobile 2,27.59409,-30.9666,Rural,Mobile Service,Yes,Yes,No,No,No,No,No,Yes,Yes,No,No,No,Yes,No,Yes,No,No,No,No,,Not Registered,
Barkly East Mobile 3,27.59409,-30.9666,Rural,Mobile Service,Yes,Yes,No,No,No,No,No,No,No,No,No,No,Yes,No,No,No,No,No,No,,Not Registered,
Bensonvale Clinic,27.35663,-30.5822,Rural,Clinic,Yes,Yes,No,No,No,No,No,Yes,Yes,Yes,Yes,No,Yes,No,Yes,Yes,No,No,No,,Registered,
Bluegums Clinic,27.232414,-30.5475,Rural,Clinic,Yes,Yes,Yes,Yes,No,No,No,Yes,Yes,Yes,No,Yes,Yes,No,Yes,Yes,No,No,No,,Not Registered,
Esilindini Clinic,27.33027,-30.5439,Rural,Clinic,Yes,Yes,No,No,No,No,No,Yes,Yes,Yes,No,No,Yes,No,Yes,Yes,No,No,No,,Registered,
Herschel Clinic,27.16438,-30.6147,Rural,Clinic,Yes,Yes,No,No,No,No,No,Yes,Yes,Yes,Yes,No,Yes,No,Yes,Yes,No,No,No,,Registered,
Hillside Clinic (Senqu),27.564216,-30.561,Rural,Clinic,Yes,Yes,No,Yes,No,No,No,Yes,Yes,Yes,Yes,No,Yes,No,Yes,Yes,No,No,No,,Registered,
Lady Grey Hospital,27.21188,-30.7128,Urban,District Hospital,Yes,Yes,No,No,No,No,No,Yes,No,Yes,No,No,Yes,No,Yes,Yes,No,No,No,,Not Registered,
Lady Grey Mobile 1,27.21186,-30.7128,Urban,Mobile Service,Yes,Yes,No,No,No,No,No,Yes,Yes,Yes,No,No,Yes,No,Yes,No,No,No,No,,Not Registered,
Macacuma Clinic,27.35298,-30.4574,Rural,Clinic,Yes,Yes,No,No,No,No,No,Yes,Yes,Yes,No,No,Yes,No,Yes,Yes,No,No,No,,Registered,
Masibulele Clinic,27.44133,-30.3592,Rural,Clinic,Yes,Yes,No,No,No,No,No,Yes,Yes,Yes,No,No,Yes,No,Yes,Yes,No,No,No,,Not Registered,
Musong Clinic,27.56074,-30.491,Rural,Clinic,Yes,Yes,No,Yes,No,No,No,Yes,Yes,Yes,Yes,No,Yes,No,Yes,Yes,No,No,No,,Registered,
Ndofela Clinic,27.43182,-30.3838,Rural,Clinic,Yes,Yes,No,No,No,No,No,Yes,Yes,Yes,No,No,Yes,No,Yes,Yes,No,No,No,,Registered,
Palmietfontein Clinic,27.53343,-30.4307,Rural,Clinic,Yes,Yes,No,Yes,No,No,No,Yes,Yes,Yes,No,No,Yes,No,Yes,Yes,No,No,No,,Registered,
Pelandaba Clinic,27.60077,-30.5994,Rural,Clinic,Yes,Yes,No,No,No,No,No,Yes,Yes,Yes,No,No,Yes,No,Yes,Yes,No,No,No,,Not Registered,
Rhodes Satellite Clinic,27.95999,-30.7983,Peri-Urban,Satellite Clinic,Yes,Yes,No,No,No,No,No,Yes,Yes,Yes,Yes,No,Yes,No,Yes,Yes,No,No,No,,Not Registered,
Robert Mjobo Clinic,27.21183,-30.7128,Urban,Clinic,Yes,Yes,No,No,No,No,No,Yes,Yes,Yes,Yes,No,Yes,No,Yes,Yes,No,No,No,,Not Registered,
Senqu Mobile 1,27.04587,-31.3748,Rural,Mobile Service,Yes,Yes,No,No,No,No,No,Yes,Yes,Yes,No,No,Yes,No,Yes,No,No,No,No,,Not Registered,
Sonwabo Zandile Clinic,27.59404,-30.9666,Urban,Clinic,Yes,Yes,No,Yes,No,No,No,Yes,Yes,Yes,Yes,No,Yes,No,Yes,Yes,No,No,No,,Registered,
Sterkspruit Town Clinic,27.35337,-30.5332,Rural,Clinic,Yes,Yes,No,No,No,No,No,Yes,Yes,Yes,No,No,Yes,No,Yes,Yes,No,No,No,,Registered,
St Michael's Clinic,27.44145,-30.4713,Rural,Clinic,Yes,Yes,No,No,No,No,No,Yes,Yes,Yes,No,No,Yes,No,Yes,Yes,No,No,No,,Not Registered,
Sunduza Clinic,27.39112,-30.6155,Rural,Clinic,Yes,Yes,No,Yes,No,No,No,Yes,Yes,Yes,Yes,No,Yes,No,Yes,Yes,No,No,No,,Not Registered,
Umlamli Gateway Clinic,27.47457,-30.5604,Rural,Clinic,Yes,Yes,No,No,No,No,No,Yes,Yes,Yes,No,No,Yes,No,Yes,Yes,No,No,No,,Registered,
Umlamli Hospital,27.47457,-30.5604,Rural,District Hospital,Yes,Yes,No,No,No,No,Yes,Yes,No,Yes,No,No,Yes,No,Yes,Yes,No,No,No,,Not Registered,
Wittebergen Clinic,27.10606,-30.6023,Rural,Clinic,Yes,Yes,No,Yes,No,No,No,Yes,Yes,Yes,Yes,No,Yes,No,Yes,Yes,No,No,No,,Not Registered,
Zenethemba Clinic,27.40608,-30.4874,Rural,Clinic,Yes,Yes,No,Yes,No,No,No,Yes,Yes,Yes,No,No,Yes,No,Yes,Yes,No,No,No,,Registered,
Aliwal Mobile 1,26.71034,-30.6892,Rural,Mobile Service,Yes,Yes,No,No,No,No,No,Yes,Yes,No,No,No,Yes,No,Yes,No,No,No,No,,Not Registered,
Aliwal North Block H Clinic,26.68674,-30.6883,Urban,Clinic,Yes,Yes,No,No,No,No,No,Yes,Yes,Yes,No,No,Yes,No,Yes,Yes,No,No,No,,Registered,
Aliwal North Hospital,26.70719,-30.6969,Urban,District Hospital,No,Yes,No,No,Yes,No,Yes,Yes,No,Yes,Yes,Yes,Yes,No,Yes,Yes,No,No,No,,Registered,
Burgersdorp Clinic,26.3321,-30.9948,Peri-Urban,Clinic,Yes,Yes,No,No,No,No,No,Yes,Yes,Yes,No,No,Yes,No,Yes,Yes,No,No,No,,Registered,
Burgersdorp Hospital,26.31398,-30.9935,Peri-Urban,District Hospital,Yes,Yes,Yes,No,Yes,No,Yes,Yes,No,Yes,Yes,No,Yes,No,Yes,Yes,No,No,No,,Registered,
Burgersdorp Mobile 1,26.33088,-30.9941,Rural,Mobile Service,Yes,Yes,No,Yes,No,No,No,Yes,Yes,Yes,No,No,Yes,No,Yes,No,No,No,No,,Not Registered,
Eureka Clinic,26.31904,-31.0103,Urban,Clinic,Yes,Yes,No,No,No,No,No,Yes,Yes,Yes,No,No,Yes,No,Yes,Yes,No,No,No,,Registered,
Jamestown Clinic,26.844546,-31.0868,Peri-Urban,Clinic,Yes,Yes,No,No,No,No,No,Yes,Yes,Yes,No,No,Yes,No,Yes,Yes,No,No,No,,Registered,
Jamestown Hospital,26.8074,-31.1236,Peri-Urban,District Hospital,No,Yes,No,No,No,No,No,Yes,Yes,Yes,No,No,Yes,No,Yes,Yes,No,No,No,,Not Registered,
Jamestown Mobile 1,26.8074,-31.1236,Rural,Mobile Service,Yes,Yes,No,Yes,No,No,No,Yes,No,Yes,No,No,Yes,No,Yes,No,No,No,No,,Not Registered,
Khayamnandi Clinic,25.812072,-31.2817,Urban,Clinic,Yes,Yes,No,Yes,No,No,No,Yes,Yes,Yes,No,No,Yes,No,Yes,Yes,No,No,No,,Registered,
Maletswai Clinic,26.69861,-30.6907,Urban,Clinic,Yes,Yes,No,Yes,No,No,No,Yes,Yes,Yes,No,No,Yes,No,Yes,Yes,No,No,No,,Registered,
Mzamomhle Clinic (Albert),26.33522,-31.0072,Urban,Clinic,Yes,Yes,No,No,No,No,No,Yes,Yes,Yes,Yes,No,Yes,No,Yes,Yes,No,No,No,,Registered,
Oviston Satellite Clinic,25.7972,-30.778,Urban,Satellite Clinic,Yes,Yes,Yes,No,No,No,No,Yes,Yes,Yes,No,No,Yes,No,Yes,No,No,No,No,,Not Registered,
St Elizabeth's Hospital,29.56532,-31.3598,Rural,Regional Hospital,Yes,Yes,Yes,Yes,Yes,No,Yes,Yes,No,Yes,Yes,Yes,Yes,No,Yes,Yes,No,No,No,,Registered,
Steynsburg Mobile 1,25.81936,-31.2902,Rural,Mobile Service,Yes,Yes,No,No,No,No,No,Yes,No,Yes,Yes,No,Yes,No,Yes,No,No,Yes,Yes,,Not Registered,
Thembisa Clinic,26.3188,-31.021,Urban,Clinic,Yes,Yes,No,No,No,No,No,Yes,Yes,Yes,No,No,Yes,No,Yes,Yes,No,No,No,,Registered,
